codigo_ibge,nome,latitude,longitude,capital,codigo_uf,ddd
5200050,Abadia de Goiás,-16.785571523032655,-49.452097906864765,False,52,62
3100104,Abadia dos Dourados,-18.353312153621978,-47.45899743998418,False,31,34
5200100,Abadiânia,-16.186546076037363,-48.713493937645836,False,52,62
3100203,Abaeté,-19.102748504280083,-45.35867495768383,False,31,37
1500107,Abaetetuba,-1.7302565857060372,-48.88306843040013,False,15,91
2300101,Abaiara,-7.36057394731255,-39.03682474704177,False,23,88
2900108,Abaíra,-13.296568982504457,-41.74289387292217,False,29,77
2900207,Abaré,-8.833540430613667,-39.31769285968655,False,29,75
4100103,Abatiá,-23.307150685013795,-50.30960942245719,False,41,43
4200051,Abdon Batista,-27.58382489988436,-51.05626283062604,False,42,49
1500131,Abel Figueiredo,-4.957318686811447,-48.42460077266513,False,15,94
4200101,Abelardo Luz,-26.562426854055346,-52.25571912212555,False,42,49
3100302,Abre Campo,-20.273171851761674,-42.44263431506808,False,31,31
2600054,Abreu e Lima,-7.879660783441743,-35.01914464088059,False,26,81
1700251,Abreulândia,-9.478807702403895,-49.31125314636035,False,17,63
3100401,Acaiaca,-20.399832016561398,-43.10120204265814,False,31,31
2100055,Açailândia,-4.785820888056343,-47.332429062503046,False,21,99
2900306,Acajutiba,-11.663171754527221,-38.00053100007609,False,29,75
1500206,Acará,-2.0353860938633,-48.41145009696902,False,15,91
2300150,Acarape,-4.217063096529975,-38.66281568993322,False,23,85
2300200,Acaraú,-2.9678978182219127,-40.08813329886749,False,23,88
2400109,Acari,-6.409361681112219,-36.65011514168319,False,24,84
2200053,Acauã,-8.305962587444256,-41.00167432197139,False,22,89
4300034,Aceguá,-31.690648275196423,-54.13918106915589,False,43,53
2300309,Acopiara,-6.122030613940162,-39.49384181317315,False,23,88
5100102,Acorizal,-15.177269351799572,-56.318035765048656,False,51,65
1200013,Acrelândia,-9.93393359582432,-66.95016850856912,False,12,68
5200134,Acreúna,-17.45232812874985,-50.32603315249298,False,52,64
2400208,Açu,-5.526647957442563,-37.01411461202104,False,24,84
3100500,Açucena,-19.052635029113333,-42.45074354659948,False,31,33
3500105,Adamantina,-21.576682210920264,-51.056802358755256,False,35,18
5200159,Adelândia,-16.369115110616157,-50.18463547271972,False,52,64
3500204,Adolfo,-21.288685099671543,-49.653283445580875,False,35,17
4100202,Adrianópolis,-24.7834527894294,-48.82120865161059,False,41,41
2900355,Adustina,-10.562272033948474,-38.037636838378674,False,29,75
2600104,Afogados da Ingazeira,-7.737287290703074,-37.61826611371127,False,26,87
2400307,Afonso Bezerra,-5.471434570283209,-36.59989402024796,False,24,84
3200102,Afonso Cláudio,-20.089426737539778,-41.1265138036406,False,32,27
2100105,Afonso Cunha,-4.214778150802177,-43.29735622127031,False,21,98
2600203,Afrânio,-8.61892909700135,-41.00539530584436,False,26,87
1500305,Afuá,-0.2628410480459565,-50.72590506778536,False,15,91
2600302,Agrestina,-8.456613774828979,-35.94524500893149,False,26,81
2200103,Agricolândia,-5.768187444787128,-42.68237224807945,False,22,86
4200200,Agrolândia,-27.455116394057253,-49.82477985782452,False,42,47
4200309,Agronômica,-27.327559425851405,-49.720746860026516,False,42,47
1500347,Água Azul do Norte,-6.772978656703908,-50.430154953375144,False,15,94
3100609,Água Boa,-18.02726478729931,-42.27593246345093,False,31,33
5100201,Água Boa,-13.977564266635287,-52.50025307843359,False,51,66
2200202,Água Branca,-5.914075073382469,-42.628119817740824,False,22,86
2500106,Água Branca,-7.47048771078003,-37.66262187079044,False,25,83
2700102,Água Branca,-9.265026197564719,-37.898720130692745,False,27,82
5000203,Água Clara,-19.96282225753582,-52.9266922015425,False,50,67
3100708,Água Comprida,-20.005448924319392,-48.08420561425457,False,31,34
4200408,Água Doce,-26.7656476569194,-51.61183659547241,False,42,49
2100154,Água Doce do Maranhão,-2.946424229862581,-42.166194869242574,False,21,98
3200169,Água Doce do Norte,-18.516648956543637,-40.99675853794752,False,32,27
2900405,Água Fria,-11.823178409819453,-38.7104659968065,False,29,75
5200175,Água Fria de Goiás,-14.906503707940729,-47.79514213028951,False,52,62
5200209,Água Limpa,-18.079849818439428,-48.791106857392194,False,52,64
2400406,Água Nova,-6.2086246162517575,-38.308643806166536,False,24,84
2600401,Água Preta,-8.729272832976186,-35.48184971034892,False,26,81
4300059,Água Santa,-28.213856827141225,-52.051749189611684,False,43,54
3500303,Aguaí,-22.049956302083515,-47.04031989294538,False,35,19
3100807,Aguanil,-20.97377893479093,-45.42202415220388,False,31,35
2600500,Águas Belas,-9.08704453863361,-37.038648051829064,False,26,87
3500402,Águas da Prata,-21.913710333867165,-46.691677607834755,False,35,19
4200507,Águas de Chapecó,-27.05438603399416,-52.95673528580013,False,42,49
3500501,Águas de Lindóia,-22.474823173496965,-46.6036720808946,False,35,19
3500550,Águas de Santa Bárbara,-22.85795483690765,-49.26103703543736,False,35,14
3500600,Águas de São Pedro,-22.598649693262153,-47.87608964724377,False,35,19
3100906,Águas Formosas,-17.04164348372105,-40.97390487614262,False,31,33
4200556,Águas Frias,-26.851638850978212,-52.85231123380807,False,42,49
5200258,Águas Lindas de Goiás,-15.755753701776019,-48.28572973264023,False,52,61
4200606,Águas Mornas,-27.733480957555447,-48.93602693595452,False,42,48
3101003,Águas Vermelhas,-15.683155040294187,-41.52151131409444,False,31,33
4300109,Agudo,-29.60808719598865,-53.22658129018865,False,43,55
3500709,Agudos,-22.57193420521978,-49.10876753978452,False,35,14
4100301,Agudos do Sul,-26.027756044774478,-49.311246091213704,False,41,41
3200136,Águia Branca,-18.970334247008665,-40.74950605138288,False,32,27
2500205,Aguiar,-7.074081797692779,-38.21377921303689,False,25,83
1700301,Aguiarnópolis,-6.48857878574513,-47.51337206056164,False,17,63
3101102,Aimorés,-19.625175846713223,-41.21394044464048,False,31,33
2900603,Aiquara,-14.091818535297062,-39.88086171730242,False,29,73
2300408,Aiuaba,-6.605146587662539,-40.29858517304276,False,23,88
3101201,Aiuruoca,-21.954612078608665,-44.64758707401228,False,31,35
4300208,Ajuricaba,-28.209931295476302,-53.737199091900415,False,43,55
3101300,Alagoa,-22.186620027876984,-44.660634419704124,False,31,35
2500304,Alagoa Grande,-7.059072013640405,-35.60284228514875,False,25,83
2500403,Alagoa Nova,-7.0616433720176035,-35.76691739430746,False,25,83
2500502,Alagoinha,-6.961968174563599,-35.522213727373035,False,25,83
2600609,Alagoinha,-8.494728608617152,-36.758124541294876,False,26,87
2200251,Alagoinha do Piauí,-6.929342651291996,-40.91974302991251,False,22,89
2900702,Alagoinhas,-12.113125674242017,-38.402235222964705,False,29,75
3500758,Alambari,-23.54892702783309,-47.869055054270746,False,35,15
3101409,Albertina,-22.19853993346259,-46.61370277880712,False,31,35
2100204,Alcântara,-2.379298383692864,-44.5398683497719,False,21,98
2300507,Alcântaras,-3.592264851215153,-40.543017848585805,False,23,88
2500536,Alcantil,-7.689910350901784,-36.04671160769479,False,25,83
5000252,Alcinópolis,-18.20915243908209,-53.74919234816971,False,50,67
2900801,Alcobaça,-17.46923111455741,-39.40955626195783,False,29,73
2100303,Aldeias Altas,-4.502868809692353,-43.383479150293226,False,21,99
4300307,Alecrim,-27.651751016053982,-54.78321686114019,False,43,55
3200201,Alegre,-20.719496190096752,-41.51493531287567,False,32,28
4300406,Alegrete,-29.76394255312669,-55.83575104558928,False,43,55
2200277,Alegrete do Piauí,-7.200515433260387,-40.79750336355078,False,22,89
4300455,Alegria,-27.81354340689008,-54.056208238740034,False,43,55
3101508,Além Paraíba,-21.826448740008136,-42.74646414332008,False,31,32
1500404,Alenquer,-0.6046147915872832,-55.03916585837633,False,15,93
2400505,Alexandria,-6.364493410624054,-37.989195148258396,False,24,84
5200308,Alexânia,-16.089161807118664,-48.481857005152015,False,52,62
3101607,Alfenas,-21.38868870948819,-45.966250340815336,False,31,35
3200300,Alfredo Chaves,-20.563900353684215,-40.827056230641425,False,32,27
3500808,Alfredo Marcondes,-21.934972952987927,-51.39565497565409,False,35,18
3101631,Alfredo Vasconcelos,-21.13904297898992,-43.712509836747365,False,31,32
4200705,Alfredo Wagner,-27.705946735493264,-49.33075107013001,False,42,48
2500577,Algodão de Jandaíra,-6.887931856043928,-35.97225348253385,False,25,83
2500601,Alhandra,-7.348619706125252,-34.93332316977282,False,25,83
2600708,Aliança,-7.60257594950999,-35.193038963506815,False,26,81
1700350,Aliança do Tocantins,-11.331182681592571,-48.90829469200334,False,17,63
2900900,Almadina,-14.701273001955304,-39.66409283967232,False,29,73
1700400,Almas,-11.429505233877867,-47.2110189715732,False,17,63
1500503,Almeirim,0.2848411813872593,-53.893720896199824,False,15,93
3101706,Almenara,-16.091080432295172,-40.72377549681969,False,31,33
2400604,Almino Afonso,-6.15448985793176,-37.762973131378,False,24,84
4100400,Almirante Tamandaré,-25.296825474800023,-49.32352807016761,False,41,41
4300471,Almirante Tamandaré do Sul,-28.129956583792147,-52.90764178642276,False,43,54
5200506,Aloândia,-17.693821341002405,-49.465453165409535,False,52,64
3101805,Alpercata,-18.98374295119638,-42.01920397703364,False,31,33
4300505,Alpestre,-27.217260966809068,-53.06352304115098,False,43,55
3101904,Alpinópolis,-20.85952851993101,-46.37615821884231,False,31,35
5100250,Alta Floresta,-10.055804553037289,-56.3677085057894,False,51,66
1100015,Alta Floresta D'Oeste,-12.470132272726483,-62.274660996837994,False,11,69
3500907,Altair,-20.533337784910675,-49.093860814913334,False,35,17
1500602,Altamira,-6.486171795000047,-53.886683209833414,False,15,93
2100402,Altamira do Maranhão,-4.16702745718403,-45.50281311735528,False,21,98
4100459,Altamira do Paraná,-24.813376568694565,-52.692307883217374,False,41,44
2300606,Altaneira,-6.985614666266591,-39.699297378870256,False,23,88
3102001,Alterosa,-21.225214576653254,-46.15360470727879,False,31,35
2600807,Altinho,-8.490502608057303,-36.09897156340499,False,26,81
3501004,Altinópolis,-21.018047253190506,-47.38624830511379,False,35,16
3501103,Alto Alegre,-21.612539783313004,-50.19211677311356,False,35,18
1400050,Alto Alegre,3.0716304966319,-62.74071552623892,False,14,95
4300554,Alto Alegre,-28.804319821254804,-52.98892480893516,False,43,54
2100436,Alto Alegre do Maranhão,-4.210628253840892,-44.39583873789214,False,21,99
2100477,Alto Alegre do Pindaré,-3.8703351001004256,-46.00178361178872,False,21,98
1100379,Alto Alegre dos Parecis,-12.593736093593096,-61.88080742930475,False,11,69
5100300,Alto Araguaia,-17.445609870844336,-53.466858330303694,False,51,66
4200754,Alto Bela Vista,-27.42153507159898,-51.92594839890351,False,42,49
5100359,Alto Boa Vista,-11.811502344254501,-51.75022344944934,False,51,66
3102050,Alto Caparaó,-20.45842501987798,-41.86489563804882,False,31,32
2400703,Alto do Rodrigues,-5.362329369495012,-36.72362048007405,False,24,84
4300570,Alto Feliz,-29.36306225807093,-51.304514968203485,False,43,51
5100409,Alto Garças,-16.888305018928737,-53.58097451564186,False,51,66
5200555,Alto Horizonte,-14.171078990277891,-49.42888296989279,False,52,62
3153509,Alto Jequitibá,-20.4372483012715,-41.948846961635674,False,31,33
2200301,Alto Longá,-5.379440994103664,-42.1546961498821,False,22,86
5100508,Alto Paraguai,-14.759797373962181,-56.66124171050312,False,51,65
4128625,Alto Paraíso,-23.538838579817217,-53.82464586957683,False,41,44
1100403,Alto Paraíso,-9.649317569946502,-63.3943337643499,False,11,69
5200605,Alto Paraíso de Goiás,-14.183031950558084,-47.53513314992943,False,52,62
4100608,Alto Paraná,-23.07609371117077,-52.32357741417079,False,41,44
2100501,Alto Parnaíba,-9.508467072190134,-46.213300955666746,False,21,99
4100707,Alto Piquiri,-24.09829673598168,-53.401982453056014,False,41,44
3102100,Alto Rio Doce,-21.03576050522936,-43.40339853673066,False,31,32
3200359,Alto Rio Novo,-19.022107782053723,-40.98720025801607,False,32,27
2300705,Alto Santo,-5.5161613940223955,-38.24087817006445,False,23,88
5100607,Alto Taquari,-17.81975297468874,-53.30654875024478,False,51,66
4100509,Altônia,-23.9025579650726,-53.94884371913851,False,41,44
2200400,Altos,-5.014803287276256,-42.46971509826174,False,22,86
3501152,Alumínio,-23.533000388576102,-47.28124763233842,False,35,11
1300029,Alvarães,-3.6947315604963404,-65.32449985027851,False,13,97
3102209,Alvarenga,-19.419945183450153,-41.69543537137167,False,31,33
3501202,Álvares Florence,-20.289554435261646,-49.920251463230436,False,35,17
3501301,Álvares Machado,-22.1315046738704,-51.51492033095594,False,35,18
3501400,Álvaro de Carvalho,-22.08652416308833,-49.73398937637143,False,35,14
3501509,Alvinlândia,-22.45255221199713,-49.758530644093575,False,35,14
3102308,Alvinópolis,-20.111810540419835,-43.152508579159935,False,31,31
1700707,Alvorada,-12.407495758167439,-49.111793927396945,False,17,63
4300604,Alvorada,-29.994984578787445,-51.03742487048035,False,43,51
1100346,Alvorada D'Oeste,-11.311420962200748,-62.544992233093346,False,11,69
3102407,Alvorada de Minas,-18.779019153308678,-43.367599127611676,False,31,31
2200459,Alvorada do Gurguéia,-8.456000204383969,-43.96836813218615,False,22,89
5200803,Alvorada do Norte,-14.567164948987562,-46.63253598172555,False,52,62
4100806,Alvorada do Sul,-22.81064463158244,-51.255064906089444,False,41,43
1400027,Amajari,3.732438850091535,-62.43248397441592,False,14,95
5000609,Amambai,-23.15780838233424,-54.968173022291154,False,50,67
1600105,Amapá,1.746761374638806,-50.592583340819,False,16,96
2100550,Amapá do Maranhão,-1.6729311992906215,-45.949808526560105,False,21,98
4100905,Amaporã,-23.128811260958066,-52.834860557924124,False,41,44
2600906,Amaraji,-8.365021188403281,-35.465459471495336,False,26,81
4300638,Amaral Ferrador,-30.810239782114646,-52.317353825628324,False,43,51
5200829,Amaralina,-13.84236083842402,-49.61542455550672,False,52,62
2200509,Amarante,-6.370339539927531,-42.78783077103596,False,22,86
2100600,Amarante do Maranhão,-5.278304560476796,-46.582085057126086,False,21,99
2901007,Amargosa,-13.040852239653097,-39.62632106952075,False,29,75
1300060,Amaturá,-3.4184334254345887,-68.28649946961782,False,13,97
2901106,Amélia Rodrigues,-12.42118428097685,-38.720482693803326,False,29,75
2901155,América Dourada,-11.406196240832463,-41.52292271753779,False,29,74
3501608,Americana,-22.723242943243676,-47.28911884357989,False,35,19
5200852,Americano do Brasil,-16.26101081122391,-50.00008389319924,False,52,64
3501707,Américo Brasiliense,-21.72232779835966,-48.0323773429233,False,35,16
3501806,Américo de Campos,-20.28938610904005,-49.76801794717493,False,35,17
4300646,Ametista do Sul,-27.365610672064115,-53.19254620781593,False,43,55
2300754,Amontada,-3.23960059803732,-39.78518490493025,False,23,88
5200902,Amorinópolis,-16.625914297644506,-51.10862984071062,False,52,64
2500734,Amparo,-7.560650092122795,-37.03935555132315,False,25,83
3501905,Amparo,-22.699128789672308,-46.79872856370018,False,35,19
2800100,Amparo de São Francisco,-10.165639250103338,-36.92146864170161,False,28,79
3102506,Amparo do Serra,-20.528181665355124,-42.804934207551284,False,31,31
4101002,Ampére,-25.91665367091419,-53.48322177556396,False,41,46
2700201,Anadia,-9.662962607618113,-36.3134971409977,False,27,82
2901205,Anagé,-14.589899966120122,-40.92771676478486,False,29,77
4101051,Anahy,-24.644084578694716,-53.143761890949,False,41,45
1500701,Anajás,-0.827132551542443,-49.96139116515559,False,15,91
2100709,Anajatuba,-3.255633532544545,-44.599228958627656,False,21,98
3502002,Analândia,-22.121084615402694,-47.67795534865884,False,35,19
1300086,Anamã,-3.501856786355991,-61.717987880317956,False,13,97
1701002,Ananás,-6.232678532027564,-48.186638350923815,False,17,63
1500800,Ananindeua,-1.3340800074157775,-48.38354586206343,False,15,91
5201108,Anápolis,-16.290579770125984,-48.972886035064974,False,52,62
1500859,Anapu,-3.9971851208714484,-51.30127773762138,False,15,91
2100808,Anapurus,-3.543886521469323,-43.10775035798047,False,21,98
5000708,Anastácio,-20.696249277895724,-55.77206825508403,False,50,67
5000807,Anaurilândia,-22.111456779745026,-52.80484243371514,False,50,67
4200804,Anchieta,-26.53294818291584,-53.333108648652335,False,42,49
3200409,Anchieta,-20.718677610640405,-40.68627301411946,False,32,28
2901304,Andaraí,-12.733601953594027,-41.21502848025532,False,29,75
4101101,Andirá,-23.017912320828966,-50.27160257547207,False,41,43
2901353,Andorinha,-10.280762191014913,-39.87190117535335,False,29,74
3102605,Andradas,-22.075769202783267,-46.55475276472116,False,31,35
3502101,Andradina,-20.835600180438853,-51.32971778270221,False,35,18
4300661,André da Rocha,-28.59426957374529,-51.504193266760076,False,43,54
3102803,Andrelândia,-21.73885620201775,-44.26970225428515,False,31,35
3502200,Angatuba,-23.436841876689716,-48.45933416351353,False,35,15
3102852,Angelândia,-17.703240517287632,-42.282835080601515,False,31,33
5000856,Angélica,-22.06244353050533,-53.865802308292686,False,50,67
2601003,Angelim,-8.891265814686454,-36.27673079872335,False,26,87
4200903,Angelina,-27.543005679451472,-49.067223687495265,False,42,48
2901403,Angical,-11.996647875707168,-44.647831214171696,False,29,77
2200608,Angical do Piauí,-6.106947402075377,-42.75039023521534,False,22,86
1701051,Angico,-6.4357939445642405,-47.913164893685604,False,17,63
2400802,Angicos,-5.6462983623151,-36.55723377564656,False,24,84
3300100,Angra dos Reis,-22.986551393580445,-44.35275310496958,False,33,24
2901502,Anguera,-12.182973878075794,-39.19283199252207,False,29,75
4101150,Ângulo,-23.191603107344122,-51.91826091832593,False,41,44
5201207,Anhanguera,-18.312361979947866,-48.22537934971262,False,52,64
3502309,Anhembi,-22.800067361899604,-48.174731117996586,False,35,14
3502408,Anhumas,-22.362024282318536,-51.42777944453858,False,35,18
5201306,Anicuns,-16.397063200704416,-49.96785753636039,False,52,64
2200707,Anísio de Abreu,-9.21410628368812,-43.04196179576194,False,22,89
4201000,Anita Garibaldi,-27.730321790524208,-51.07955798573021,False,42,49
4201109,Anitápolis,-27.87977597156897,-49.13875010484178,False,42,48
1300102,Anori,-4.1986951420083205,-62.095421248866195,False,13,97
4300703,Anta Gorda,-28.97015810872089,-51.994601745392714,False,43,51
2901601,Antas,-10.396686999897447,-38.30037911325269,False,29,75
4101200,Antonina,-25.30602016871142,-48.72086172691929,False,41,41
2300804,Antonina do Norte,-6.756486778520413,-39.981273109569756,False,23,88
2200806,Antônio Almeida,-7.219380104156257,-44.202706269919744,False,22,89
2901700,Antônio Cardoso,-12.37979546463463,-39.14705133101371,False,29,75
4201208,Antônio Carlos,-27.497474229478946,-48.83098179585412,False,42,48
3102902,Antônio Carlos,-21.41058701912414,-43.76633244300276,False,31,32
3103009,Antônio Dias,-19.567065867360842,-42.876357433994,False,31,31
2901809,Antônio Gonçalves,-10.601509463773999,-40.36236502731896,False,29,74
5000906,Antônio João,-22.208912182135858,-55.96145511602525,False,50,67
2400901,Antônio Martins,-6.219616540592261,-37.92478302333062,False,24,84
4101309,Antônio Olinto,-25.95997241015832,-50.12841716181747,False,41,42
4300802,Antônio Prado,-28.882267198492475,-51.316322979027426,False,43,54
3103108,Antônio Prado de Minas,-21.022542981452112,-42.15202110206613,False,31,32
2500775,Aparecida,-6.789340173768174,-38.067955630904656,False,25,83
3502507,Aparecida,-22.914206040127134,-45.23721921739436,False,35,12
3502606,Aparecida d'Oeste,-20.478803390485268,-50.921977259459666,False,35,17
5201405,Aparecida de Goiânia,-16.809987375618462,-49.26248205894021,False,52,62
5201454,Aparecida do Rio Doce,-18.216107253447014,-51.26293933307895,False,52,64
1701101,Aparecida do Rio Negro,-9.986598002096946,-48.000040305073384,False,17,63
5001003,Aparecida do Taboado,-20.075609525102422,-51.29020398127972,False,50,67
3300159,Aperibé,-21.652291968412044,-42.13466555751662,False,33,22
3200508,Apiacá,-21.072134024338283,-41.55414228644169,False,32,28
5100805,Apiacás,-8.758635830000657,-57.82599821519619,False,51,66
3502705,Apiaí,-24.4214703338988,-48.81735731705966,False,35,15
2100832,Apicum-Açu,-1.535337930845703,-45.08737533651075,False,21,98
4201257,Apiúna,-27.124502359020173,-49.36424460012209,False,42,47
2401008,Apodi,-5.622622336409735,-37.83650503339969,False,24,84
2901908,Aporá,-11.731565419656198,-38.1938031611983,False,29,75
5201504,Aporé,-18.768383962562485,-52.0451905856896,False,52,64
2901957,Apuarema,-13.820033812123842,-39.75157032482298,False,29,73
4101408,Apucarana,-23.572030177927644,-51.44600184906521,False,41,43
1300144,Apuí,-7.7599514797692555,-59.432108354409216,False,13,97
2300903,Apuiarés,-3.9683159261563334,-39.33069811024332,False,23,85
2800209,Aquidabã,-10.26081228139355,-37.06414547544568,False,28,79
5001102,Aquidauana,-19.74626907599151,-55.87695623701955,False,50,67
2301000,Aquiraz,-3.9765700883799373,-38.39408073959339,False,23,85
4201273,Arabutã,-27.140887729190045,-52.181633601765,False,42,49
2500809,Araçagi,-6.8612209285878345,-35.3544582371263,False,25,83
3103207,Araçaí,-19.234840983485444,-44.21844283543404,False,31,31
2800308,Aracaju,-10.994202264840442,-37.094913519308726,True,28,79
3502754,Araçariguama,-23.434433886245838,-47.07237501418517,False,35,11
2902054,Araças,-12.172946815137427,-38.21254420105181,False,29,75
2301109,Aracati,-4.6809824969929865,-37.685505448554274,False,23,88
2902005,Aracatu,-14.371225701192987,-41.374548419638735,False,29,77
3502804,Araçatuba,-21.113857858686057,-50.57449809284505,False,35,18
2902104,Araci,-11.212471510674266,-39.06446380125613,False,29,75
3103306,Aracitaba,-21.35033480810693,-43.40375710280031,False,31,32
2601052,Araçoiaba,-7.793234110373142,-35.07612419458829,False,26,81
2301208,Aracoiaba,-4.482964415424061,-38.7134630199436,False,23,85
3502903,Araçoiaba da Serra,-23.54386392339011,-47.65153572243858,False,35,15
3200607,Aracruz,-19.76562254211351,-40.176141404295265,False,32,27
5201603,Araçu,-16.365949065076364,-49.70082487470327,False,52,62
3103405,Araçuaí,-16.930781597441687,-41.99317480935904,False,31,33
5201702,Aragarças,-15.969411909728366,-52.14609533893322,False,52,64
5201801,Aragoiânia,-16.951470082188212,-49.41874407156231,False,52,62
1701309,Aragominas,-6.945523746898882,-48.632330145511204,False,17,63
1701903,Araguacema,-8.939098765103502,-49.50553998893394,False,17,63
1702000,Araguaçu,-12.839858466700141,-49.69635389384654,False,17,63
5101001,Araguaiana,-15.130288193227425,-51.80670519278679,False,51,66
1702109,Araguaína,-7.331298749419967,-48.587801579175945,False,17,63
5101209,Araguainha,-16.75051538182081,-53.121275389114636,False,51,66
1702158,Araguanã,-6.790970410874498,-48.5245408293832,False,17,63
2100873,Araguanã,-3.079095819872245,-45.78733368089036,False,21,98
5202155,Araguapaz,-15.139415919196264,-50.439543066178764,False,52,62
3103504,Araguari,-18.577113469049678,-48.222047399193066,False,31,34
1702208,Araguatins,-5.66584050095384,-48.10482179521375,False,17,63
2100907,Araioses,-2.9722522052811238,-42.016981007393746,False,21,98
5001243,Aral Moreira,-22.907687831996075,-55.45018663920875,False,50,67
2902203,Aramari,-12.05072217792916,-38.524985398572014,False,29,75
4300851,Arambaré,-30.918625212016963,-51.5786111117357,False,43,51
2100956,Arame,-5.027710208781505,-45.945967858190436,False,21,99
3503000,Aramina,-20.145046042174975,-47.820643772479904,False,35,16
3503109,Arandu,-23.17769653998183,-49.06403335763393,False,35,14
3103603,Arantina,-21.896927247732044,-44.22717780414443,False,31,32
3503158,Arapeí,-22.672911262350695,-44.438589391645735,False,35,12
2700300,Arapiraca,-9.749183480616237,-36.64093329218391,False,27,82
1702307,Arapoema,-7.723417227369496,-48.99983005270936,False,17,63
3103702,Araponga,-20.66279187560851,-42.49884974139395,False,31,31
4101507,Arapongas,-23.440803372001646,-51.42824478778847,False,41,43
3103751,Araporã,-18.477375678278744,-49.12724678900129,False,31,34
4101606,Arapoti,-24.092769749037814,-49.9756812035867,False,41,43
4101655,Arapuã,-24.344029438617678,-51.815310712339986,False,41,43
3103801,Arapuá,-19.041452359166666,-46.1152904609171,False,31,34
5101258,Araputanga,-15.2530162779898,-58.4591026582036,False,51,65
4201307,Araquari,-26.461708086743847,-48.75777734399686,False,42,47
2500908,Arara,-6.858067687127826,-35.7312977230035,False,25,83
4201406,Araranguá,-28.942337790486437,-49.47121893619195,False,42,48
3503208,Araraquara,-21.791649699520345,-48.18132248290114,False,35,16
3503307,Araras,-22.346158924154274,-47.3238560060625,False,35,19
2301257,Ararendá,-4.7729628533300215,-40.74623240186251,False,23,88
2101004,Arari,-3.533311470269654,-44.72734309329081,False,21,98
4300877,Araricá,-29.63461851429023,-50.9345059985151,False,43,51
2301307,Araripe,-7.239285265431217,-40.076541940024704,False,23,88
2601102,Araripina,-7.607948421034914,-40.48480409412189,False,26,87
3300209,Araruama,-22.755347069120546,-42.292909390542675,False,33,22
4101705,Araruna,-23.955065353481764,-52.57657529445368,False,41,44
2501005,Araruna,-6.524236197316256,-35.75506389885991,False,25,83
2902252,Arataca,-15.2432752933758,-39.412179508987705,False,29,73
4300901,Aratiba,-27.387489025320377,-52.30237692803895,False,43,54
2301406,Aratuba,-4.417332580161084,-39.02495245887752,False,23,85
2902302,Aratuípe,-13.084629825290854,-39.06942926771194,False,29,75
2800407,Arauá,-11.262398421345562,-37.59204689846111,False,28,79
4101804,Araucária,-25.608605987687728,-49.44148800403407,False,41,41
3103900,Araújos,-19.886412895620833,-45.180967481203595,False,31,37
3104007,Araxá,-19.63639708098994,-46.972145981348355,False,31,34
3104106,Arceburgo,-21.3594707885843,-46.941939703390496,False,31,35
3503356,Arco-Íris,-21.766339477818203,-50.430942765825726,False,35,14
3104205,Arcos,-20.259713477422117,-45.54724573326613,False,31,37
2601201,Arcoverde,-8.383889069691056,-37.00554783679185,False,26,87
3104304,Areado,-21.356019649130484,-46.142272481653315,False,31,35
3300225,Areal,-22.23539945374156,-43.12153804070045,False,33,24
3503406,Arealva,-22.07629656285949,-48.98189311028061,False,35,14
2501104,Areia,-6.95034440967693,-35.70535992158487,False,25,83
2401107,Areia Branca,-5.001176486934698,-37.046253655296574,False,24,84
2800506,Areia Branca,-10.787200209842506,-37.33145684028104,False,28,79
2501153,Areia de Baraúnas,-7.111875400124014,-36.96187545272249,False,25,83
2501203,Areial,-7.049226564480836,-35.93148018119451,False,25,83
3503505,Areias,-22.673131485374093,-44.7123536337979,False,35,12
3503604,Areiópolis,-22.631820225293378,-48.65284535933039,False,35,14
5101308,Arenápolis,-14.507091008433939,-56.859341617121714,False,51,65
5202353,Arenópolis,-16.35319213181147,-51.58522689769768,False,52,64
2401206,Arês,-6.1936867059169405,-35.208175597792646,False,24,84
3104403,Argirita,-21.635317750016583,-42.832590462272094,False,31,32
3104452,Aricanduva,-17.881103724931787,-42.60556237085253,False,31,33
3104502,Arinos,-15.750686026856014,-45.98857487026732,False,31,38
5101407,Aripuanã,-10.179663938119887,-59.856307692509695,False,51,66
1100023,Ariquemes,-9.951880028131146,-62.95724463217708,False,11,69
3503703,Ariranha,-21.185665399725785,-48.779212611261435,False,35,17
4101853,Ariranha do Ivaí,-24.37792935870259,-51.53802409611501,False,41,43
3300233,Armação dos Búzios,-22.776208766440483,-41.949550737574164,False,33,22
4201505,Armazém,-28.237880637687738,-49.014677664556544,False,42,48
2301505,Arneiroz,-6.239363412477893,-40.154945349253126,False,23,88
2200905,Aroazes,-6.124476322354882,-41.83029193814406,False,22,89
2501302,Aroeiras,-7.535584229797931,-35.690926367636756,False,25,83
2200954,Aroeiras do Itaim,-7.250344997713449,-41.53429855992814,False,22,89
2201002,Arraial,-6.6180826355221525,-42.52031341485345,False,22,89
3300258,Arraial do Cabo,-22.925001144591405,-42.160006465943155,False,33,22
1702406,Arraias,-12.817192627509275,-47.0477744637946,False,17,63
4301008,Arroio do Meio,-29.362120579729893,-51.96502034746404,False,43,51
4301073,Arroio do Padre,-31.440374966350973,-52.39750554168732,False,43,53
4301057,Arroio do Sal,-29.520423938756927,-49.89311383973154,False,43,51
4301206,Arroio do Tigre,-29.258865042872408,-53.05226393361345,False,43,51
4301107,Arroio dos Ratos,-30.19291551695973,-51.75196055830284,False,43,51
4301305,Arroio Grande,-32.188414486425934,-52.919852323020486,False,43,53
4201604,Arroio Trinta,-26.92149911886281,-51.336678146330044,False,42,49
3503802,Artur Nogueira,-22.561197661913383,-47.132152756632664,False,35,19
5202502,Aruanã,-14.80596895754569,-50.93765266674752,False,52,62
3503901,Arujá,-23.386018416558304,-46.31905102007587,False,35,11
4201653,Arvoredo,-27.070853562301828,-52.44198670593305,False,42,49
4301404,Arvorezinha,-28.863951957870757,-52.18705389618493,False,43,51
4201703,Ascurra,-26.97363368285598,-49.395965515116565,False,42,47
3503950,Aspásia,-20.18355892573557,-50.72803036687422,False,35,17
4101903,Assaí,-23.40543007409696,-50.87555355106559,False,41,43
2301604,Assaré,-6.909634743065317,-39.86923288836637,False,23,88
3504008,Assis,-22.601741217450815,-50.420762735351424,False,35,18
1200054,Assis Brasil,-10.779673375091992,-70.00383064581497,False,12,68
4102000,Assis Chateaubriand,-24.425993757898393,-53.58458896192069,False,41,44
2501351,Assunção,-7.073611461002128,-36.71028397229635,False,25,83
2201051,Assunção do Piauí,-5.879973778460957,-41.0687785792444,False,22,86
3104601,Astolfo Dutra,-21.315494068943583,-42.87931946464412,False,31,32
4102109,Astorga,-23.250013543839394,-51.69971227847474,False,41,44
4102208,Atalaia,-23.12861054631705,-52.06493807836074,False,41,44
2700409,Atalaia,-9.504744987264958,-36.07248750209271,False,27,82
1300201,Atalaia do Norte,-5.711207374095002,-71.74115789015326,False,13,97
4201802,Atalanta,-27.43730389540479,-49.74255040629607,False,42,47
3104700,Ataléia,-18.163374312947614,-41.15148760967324,False,31,33
3504107,Atibaia,-23.123261991951374,-46.586787411797644,False,35,11
3200706,Atilio Vivacqua,-20.962208029006735,-41.18399020359498,False,32,28
1702554,Augustinópolis,-5.497817642022418,-47.92815452588356,False,17,63
1500909,Augusto Corrêa,-1.1047055552881566,-46.50741589869599,False,15,91
3104809,Augusto de Lima,-18.108839663444353,-44.19805732410042,False,31,38
4301503,Augusto Pestana,-28.533868995587795,-54.0072836066928,False,43,55
2401305,Augusto Severo (Campo Grande),-5.8803272527334185,-37.32428845503742,False,24,84
4301552,Áurea,-27.70849928658653,-52.07645400737089,False,43,54
2902401,Aurelino Leal,-14.362134145359567,-39.47826312464235,False,29,73
3504206,Auriflama,-20.644142154295547,-50.579959936318275,False,35,17
5202601,Aurilândia,-16.695269712984594,-50.525300267332895,False,52,64
2301703,Aurora,-6.9889132340913465,-38.969124337184866,False,23,88
4201901,Aurora,-27.32963165938097,-49.59034699167803,False,42,47
1500958,Aurora do Pará,-2.2311785564040276,-47.72635253123652,False,15,91
1702703,Aurora do Tocantins,-12.646636225835824,-46.43288116426402,False,17,63
1300300,Autazes,-3.7872305122564938,-59.52553389325591,False,13,92
3504305,Avaí,-22.187185933083608,-49.316211755266906,False,35,14
3504404,Avanhandava,-21.460541235908185,-49.94735220859208,False,35,18
3504503,Avaré,-23.075190074429955,-48.89401493190673,False,35,14
1501006,Aveiro,-3.667215100750338,-56.01629835358652,False,15,93
2201101,Avelino Lopes,-10.179701459026285,-43.94236421228115,False,22,89
5202809,Avelinópolis,-16.492869228605635,-49.76678392623944,False,52,64
2101103,Axixá,-2.843873187640767,-44.0986493682822,False,21,98
1702901,Axixá do Tocantins,-5.649398424598502,-47.76610861558566,False,17,63
1703008,Babaçulândia,-7.174540678066361,-47.856837159222536,False,17,63
2101202,Bacabal,-4.171104529445132,-44.76188061272232,False,21,99
2101251,Bacabeira,-2.9363463911009617,-44.357969140075795,False,21,98
2101301,Bacuri,-1.6818405362764612,-45.165229497252476,False,21,98
2101350,Bacurituba,-2.6996004407956566,-44.69516759211514,False,21,98
3504602,Bady Bassitt,-20.931535125575273,-49.4376199748983,False,35,17
3104908,Baependi,-22.01683618128122,-44.82211663646706,False,31,35
4301602,Bagé,-31.236485044693275,-54.016579196072264,False,43,53
1501105,Bagre,-2.3731431110450485,-50.181766981418654,False,15,91
2501401,Baía da Traição,-6.6631198342102165,-34.98879933599576,False,25,83
2401404,Baía Formosa,-6.434734810054096,-35.04489243691012,False,24,84
2902500,Baianópolis,-12.657168265365817,-44.440276909112754,False,29,77
1501204,Baião,-3.129838647883622,-49.69897613682053,False,15,91
2902609,Baixa Grande,-11.964750328305522,-40.15277460685448,False,29,74
2201150,Baixa Grande do Ribeiro,-8.505752772451954,-45.16098042841204,False,22,89
2301802,Baixio,-6.711448864009115,-38.75303413457777,False,23,88
3200805,Baixo Guandu,-19.572390237816112,-40.983781094178866,False,32,27
3504701,Balbinos,-21.89241208322471,-49.33308238272096,False,35,14
3105004,Baldim,-19.262936321119888,-43.863415746872455,False,31,31
5203104,Baliza,-16.359910773454082,-52.43847823668713,False,52,64
4201950,Balneário Arroio do Silva,-29.019586738381747,-49.475208514872655,False,42,48
4202057,Balneário Barra do Sul,-26.44641943228858,-48.652568675832185,False,42,47
4202008,Balneário Camboriú,-27.00473680729112,-48.621740595386925,False,42,47
4202073,Balneário Gaivota,-29.153516052251142,-49.61536799123696,False,42,48
4212809,Balneário Piçarras,-26.759491593745306,-48.73329013303927,False,42,47
4301636,Balneário Pinhal,-30.211228898400787,-50.29376343337578,False,43,51
4220000,Balneário Rincão,-28.8267343477046,-49.254224238041225,False,42,48
4102307,Balsa Nova,-25.521809570372255,-49.68865236160757,False,41,41
3504800,Bálsamo,-20.70956489305619,-49.551801907269365,False,35,17
2101400,Balsas,-8.237647988351428,-46.34275815457408,False,21,99
3105103,Bambuí,-20.1109546357657,-45.99887600714255,False,31,37
2301851,Banabuiú,-5.262204670540696,-38.90364430305275,False,23,88
3504909,Bananal,-22.733834116389044,-44.33451923190363,False,35,12
2501500,Bananeiras,-6.700177004521075,-35.59626702611337,False,25,83
3105202,Bandeira,-15.877677177911464,-40.58096903880262,False,31,33
3105301,Bandeira do Sul,-21.724132851043404,-46.384897565800735,False,31,35
4202081,Bandeirante,-26.768595799372637,-53.648167954522236,False,42,49
5001508,Bandeirantes,-19.80589194314127,-54.305751499586854,False,50,67
4102406,Bandeirantes,-23.160881147828174,-50.34644368889471,False,41,43
1703057,Bandeirantes do Tocantins,-7.903014334086909,-48.675544424491655,False,17,63
1501253,Bannach,-7.486384401266703,-50.63441633484699,False,15,94
2902658,Banzaê,-10.616471811767969,-38.65434372904448,False,29,75
4301651,Barão,-29.384652771296842,-51.48768803456419,False,43,51
3505005,Barão de Antonina,-23.582914696864552,-49.57195843641216,False,35,15
3105400,Barão de Cocais,-19.891661063168087,-43.49552309040418,False,31,31
4301701,Barão de Cotegipe,-27.567682364926874,-52.41721019599558,False,43,54
2101509,Barão de Grajaú,-6.592878943634559,-43.188051472584945,False,21,99
5101605,Barão de Melgaço,-16.81037918508523,-56.029521447862045,False,51,65
3105509,Barão de Monte Alto,-21.264787173677927,-42.278432943481775,False,31,32
4301750,Barão do Triunfo,-30.41737106395885,-51.7984935306708,False,43,51
2401453,Baraúna,-5.092796750543115,-37.61833884859561,False,24,84
2501534,Baraúna,-6.620581233923506,-36.261398244758134,False,25,83
3105608,Barbacena,-21.251514031034553,-43.80062599665126,False,31,32
2301901,Barbalha,-7.4037391076615995,-39.34456932034144,False,23,88
3505104,Barbosa,-21.29065871283201,-49.9221675137895,False,35,18
4102505,Barbosa Ferraz,-24.082351449602637,-52.04669610774681,False,41,44
1501303,Barcarena,-1.4986180062685914,-48.63423095469397,False,15,91
2401503,Barcelona,-5.961099002795672,-35.92202295452609,False,24,84
1300409,Barcelos,-0.46539636092331393,-63.43461543458882,False,13,97
3505203,Bariri,-22.06680669423394,-48.7188376300707,False,35,14
2902708,Barra,-11.030565695403055,-43.36605211609123,False,29,74
4202099,Barra Bonita,-26.668524103173755,-53.425105539895796,False,42,49
3505302,Barra Bonita,-22.47947843211421,-48.54174727883879,False,35,14
2201176,Barra D'Alcântara,-6.529597643982996,-42.10650749153301,False,22,89
2902807,Barra da Estiva,-13.650485215942583,-41.098092449844856,False,29,77
2601300,Barra de Guabiraba,-8.418177449141842,-35.633804493763364,False,26,81
2501609,Barra de Santa Rosa,-6.791168927026716,-36.07601554275158,False,25,83
2501575,Barra de Santana,-7.564837074783126,-35.96606750735248,False,25,83
2700508,Barra de Santo Antônio,-9.381973746245814,-35.564642784158046,False,27,82
3200904,Barra de São Francisco,-18.666106054693813,-40.83116655224152,False,32,27
2501708,Barra de São Miguel,-7.700355934282299,-36.28657436129304,False,25,83
2700607,Barra de São Miguel,-9.812370513950462,-35.94686333891878,False,27,82
5101704,Barra do Bugres,-15.06775988229684,-57.559572193830384,False,51,65
3505351,Barra do Chapéu,-24.443776608410833,-49.08527977994318,False,35,15
2902906,Barra do Choça,-14.913054459242634,-40.58126984671393,False,29,77
2101608,Barra do Corda,-5.504129801814953,-45.18308476940963,False,21,99
5101803,Barra do Garças,-15.363068152877716,-52.44274306565035,False,51,66
4301859,Barra do Guarita,-27.205304972644765,-53.76366017096254,False,43,55
4102703,Barra do Jacaré,-23.105756269853522,-50.15915953972141,False,41,43
2903003,Barra do Mendes,-11.95001911809307,-42.10949348618071,False,29,74
1703073,Barra do Ouro,-7.71776885488124,-47.57860790293105,False,17,63
3300308,Barra do Piraí,-22.425661982586472,-43.912958702802904,False,33,24
4301875,Barra do Quaraí,-30.151369640745713,-57.335299647300225,False,43,55
4301909,Barra do Ribeiro,-30.373875211483877,-51.357641902260376,False,43,51
4301925,Barra do Rio Azul,-27.40304550635254,-52.406711379514505,False,43,54
2903102,Barra do Rocha,-14.102480398370776,-39.587949386913586,False,29,73
3505401,Barra do Turvo,-24.888742096141737,-48.42697368496343,False,35,15
2800605,Barra dos Coqueiros,-10.851117655051471,-36.96940615782938,False,28,79
4301958,Barra Funda,-27.921694755759532,-53.01670365736083,False,43,54
3105707,Barra Longa,-20.275634878437845,-43.06620083094556,False,31,31
3300407,Barra Mansa,-22.505782783870494,-44.18830626015127,False,33,24
4202107,Barra Velha,-26.6624406074327,-48.72738559297731,False,42,47
4301800,Barracão,-27.723127567739308,-51.4386311060322,False,43,54
4102604,Barracão,-26.246518783886877,-53.532132879452654,False,41,49
2201200,Barras,-4.189928756147705,-42.36806463454986,False,22,86
2301950,Barreira,-4.321933288177591,-38.62017501239794,False,23,85
2903201,Barreiras,-12.012754484356865,-45.54231926358194,False,29,77
2201309,Barreiras do Piauí,-10.003464090626009,-45.71040797423851,False,22,89
1300508,Barreirinha,-3.129025201716494,-57.17238330090183,False,13,92
2101707,Barreirinhas,-2.839761202007086,-42.91011089993259,False,21,98
2601409,Barreiros,-8.820186162334577,-35.25859969915371,False,26,81
3505500,Barretos,-20.514164964982818,-48.651949486967446,False,35,17
3505609,Barrinha,-21.23254841512984,-48.095055316994575,False,35,16
2302008,Barro,-7.125540805689573,-38.79391423609546,False,23,88
2903235,Barro Alto,-11.847991694245344,-41.83678639917999,False,29,74
5203203,Barro Alto,-14.907893320087867,-48.8795822531099,False,52,62
2201408,Barro Duro,-5.801867040496985,-42.50275695754748,False,22,86
2903300,Barro Preto,-14.775862271300065,-39.444728326385025,False,29,73
2903276,Barrocas,-11.538041487791194,-39.09492027304377,False,29,75
1703107,Barrolândia,-9.865780961208616,-48.791190083100574,False,17,63
2302057,Barroquinha,-2.970624820329262,-41.17364059234647,False,23,88
4302006,Barros Cassal,-29.11335381467773,-52.588662941442806,False,43,54
3105905,Barroso,-21.183229066631945,-43.957817173275494,False,31,32
3505708,Barueri,-23.50527915959849,-46.87724966045955,False,35,11
3505807,Bastos,-21.950218007073584,-50.743997312858056,False,35,14
5001904,Bataguassu,-21.805730065286497,-52.57244147393789,False,50,67
2201507,Batalha,-4.017580937906291,-42.057870486156176,False,22,86
2700706,Batalha,-9.70862175060168,-37.100629599313706,False,27,82
3505906,Batatais,-20.867798948156725,-47.57477372797823,False,35,16
5002001,Batayporã,-22.39081613615875,-53.177601596235746,False,50,67
2302107,Baturité,-4.383357420398418,-38.85100170642,False,23,85
3506003,Bauru,-22.253991891822903,-49.12613467516548,False,35,14
2501807,Bayeux,-7.131734532379659,-34.92194662763562,False,25,83
3506102,Bebedouro,-20.940451120864008,-48.51074879733595,False,35,17
2302206,Beberibe,-4.401730357087526,-38.11290699803491,False,23,85
2302305,Bela Cruz,-3.053460236256071,-40.30800191016108,False,23,88
5002100,Bela Vista,-21.93591061184603,-56.53533170101316,False,50,67
4102752,Bela Vista da Caroba,-25.881025034063956,-53.63425985788016,False,41,46
5203302,Bela Vista de Goiás,-16.95770151197875,-48.91152400035,False,52,62
3106002,Bela Vista de Minas,-19.798668653405446,-43.10581824363178,False,31,31
2101772,Bela Vista do Maranhão,-3.7578287856686794,-45.26595722832196,False,21,98
4102802,Bela Vista do Paraíso,-23.005053799276226,-51.235773287608545,False,41,43
2201556,Bela Vista do Piauí,-7.996149950975579,-41.85571343418308,False,22,89
4202131,Bela Vista do Toldo,-26.418079053739287,-50.48684429909704,False,42,47
2101731,Belágua,-3.101303965934177,-43.46235262708286,False,21,98
1501402,Belém,-1.240717498763281,-48.4599111455721,True,15,91
2501906,Belém,-6.705303343112763,-35.498233801971,False,25,83
2700805,Belém,-9.557429314248477,-36.491775567440506,False,27,82
2601508,Belém de Maria,-8.603212401791298,-35.81696403152857,False,26,81
2502003,Belém do Brejo do Cruz,-6.1489812964950605,-37.36591732168077,False,25,83
2201572,Belém do Piauí,-7.3899852007535785,-40.982415040129986,False,22,89
2601607,Belém do São Francisco,-8.583563839898758,-38.9819316021817,False,26,87
3300456,Belford Roxo,-22.72872848803513,-43.377565257978844,False,33,21
3106101,Belmiro Braga,-21.985805250776654,-43.46873335264156,False,31,32
4202156,Belmonte,-26.857082062107853,-53.61806004127123,False,42,49
2903409,Belmonte,-15.936496751785045,-39.173817255364,False,29,73
2903508,Belo Campo,-14.99851376866836,-41.20384008002225,False,29,77
3106200,Belo Horizonte,-19.902684482401703,-43.95998316791548,True,31,31
2601706,Belo Jardim,-8.25892778490372,-36.40511732354465,False,26,81
2700904,Belo Monte,-9.817684670299249,-37.19271426032583,False,27,82
3106309,Belo Oriente,-19.259416390593046,-42.450417452609365,False,31,31
3106408,Belo Vale,-20.424738457360778,-44.059988622788396,False,31,31
1501451,Belterra,-3.1911274383648687,-54.99284971182139,False,15,93
2201606,Beneditinos,-5.499403972540967,-42.39992877803172,False,22,86
2101806,Benedito Leite,-7.12054345159081,-44.56830180793941,False,21,99
4202206,Benedito Novo,-26.800940232865035,-49.435396365132796,False,42,47
1501501,Benevides,-1.3396175956210408,-48.27562030686171,False,15,91
1300607,Benjamin Constant,-5.426971262499679,-70.27641105494476,False,13,97
4302055,Benjamin Constant do Sul,-27.484798582410008,-52.64262120572225,False,43,54
3506201,Bento de Abreu,-21.33175515709885,-50.86196145592276,False,35,18
2401602,Bento Fernandes,-5.675909264725846,-35.81187395918073,False,24,84
4302105,Bento Gonçalves,-29.12534972249671,-51.55147827368329,False,43,54
2101905,Bequimão,-2.430937262844012,-44.78566593199889,False,21,98
3106507,Berilo,-16.862375936963883,-42.494288750150154,False,31,33
3106655,Berizal,-15.684116394005915,-41.76175820368944,False,31,38
2502052,Bernardino Batista,-6.48106382391735,-38.55576757183512,False,25,83
3506300,Bernardino de Campos,-23.03076953707873,-49.49189825933068,False,35,14
2101939,Bernardo do Mearim,-4.680138093732301,-44.6878372187921,False,21,99
1703206,Bernardo Sayão,-7.983475214865606,-48.969116756284826,False,17,63
3506359,Bertioga,-23.75976459158061,-46.030021617537976,False,35,13
2201705,Bertolínia,-7.744980143817731,-43.87721082772158,False,22,89
3106606,Bertópolis,-16.974530227006987,-40.57424381699253,False,31,33
1300631,Beruri,-4.60623287198875,-61.80435256421653,False,13,97
2601805,Betânia,-8.265565476529252,-37.98629353155427,False,26,87
2201739,Betânia do Piauí,-8.113511901838168,-40.75119719284739,False,22,89
3106705,Betim,-19.947464593329208,-44.19916873198359,False,31,31
2601904,Bezerros,-8.21874632835538,-35.78293753642473,False,26,81
3106804,Bias Fortes,-21.62469088995429,-43.77367424364495,False,31,32
3106903,Bicas,-21.731511778757408,-43.10480191256562,False,31,32
4202305,Biguaçu,-27.43352985600408,-48.693946898465384,False,42,48
3506409,Bilac,-21.427789763215273,-50.47926665502199,False,35,18
3107000,Biquinhas,-18.75714435721171,-45.53951323892732,False,31,37
3506508,Birigui,-21.261606266305716,-50.350972578086946,False,35,18
3506607,Biritiba-Mirim,-23.62416535088103,-46.0213227899965,False,35,11
2903607,Biritinga,-11.58532349247849,-38.79263328624431,False,29,75
4102901,Bituruna,-26.171076224771497,-51.5360980185181,False,41,42
4202404,Blumenau,-26.885765665474597,-49.097307463943665,False,42,47
4103008,Boa Esperança,-24.256886572516628,-52.751222732009246,False,41,44
3107109,Boa Esperança,-21.04856081290167,-45.621146481068266,False,31,35
3201001,Boa Esperança,-18.484750461769757,-40.3291327824459,False,32,27
4103024,Boa Esperança do Iguaçu,-25.640163217758435,-53.22609003470201,False,41,46
3506706,Boa Esperança do Sul,-21.935011567457096,-48.46359198752682,False,35,16
2201770,Boa Hora,-4.354201923395094,-42.10595357156025,False,22,86
2903706,Boa Nova,-14.360202202565983,-40.22999057995846,False,29,77
2502102,Boa Ventura,-7.431062621557366,-38.188282662120535,False,25,83
4103040,Boa Ventura de São Roque,-24.85593421613563,-51.564822871953616,False,41,42
2302404,Boa Viagem,-5.087822889037775,-39.8079091727498,False,23,88
1400100,Boa Vista,3.117914995922403,-60.71795308366474,True,14,95
2502151,Boa Vista,-7.271665021875827,-36.218681409959274,False,25,83
4103057,Boa Vista da Aparecida,-25.431968822152438,-53.42183138017095,False,41,45
4302154,Boa Vista das Missões,-27.701600698746713,-53.341520249784445,False,43,55
4302204,Boa Vista do Buricá,-27.674803313786857,-54.09976615207995,False,43,55
4302220,Boa Vista do Cadeado,-28.656086080562055,-53.83759965342993,False,43,55
2101970,Boa Vista do Gurupi,-1.7620719072820703,-46.17891782418135,False,21,98
4302238,Boa Vista do Incra,-28.86524006261825,-53.46150178514805,False,43,55
1300680,Boa Vista do Ramos,-3.1378109045109372,-57.670109907580894,False,13,92
4302253,Boa Vista do Sul,-29.35085477502748,-51.671292904562186,False,43,54
2903805,Boa Vista do Tupim,-12.770167673036221,-40.670227241912414,False,29,75
2701001,Boca da Mata,-9.668906028768589,-36.17826275352964,False,27,82
1300706,Boca do Acre,-8.773154668249148,-68.04763358913998,False,13,97
2201804,Bocaina,-6.905988935590471,-41.30419716524642,False,22,89
3506805,Bocaina,-22.105430307066303,-48.52905087698636,False,35,14
3107208,Bocaina de Minas,-22.215716495521914,-44.482758814403745,False,31,32
4202438,Bocaina do Sul,-27.76311753251046,-49.909163037848515,False,42,49
3107307,Bocaiúva,-17.28972400361007,-43.68653789493928,False,31,38
4103107,Bocaiúva do Sul,-25.116269889773168,-48.93637681300169,False,41,41
2401651,Bodó,-5.962905014536171,-36.44174299563047,False,24,84
2602001,Bodocó,-7.656367904960998,-39.96512485813424,False,26,87
5002159,Bodoquena,-20.548676392442026,-56.69970913731036,False,50,67
3506904,Bofete,-23.12896964364173,-48.28587147614714,False,35,14
3507001,Boituva,-23.287583959989455,-47.67496124971295,False,35,15
2602100,Bom Conselho,-9.202868431448149,-36.68423667897608,False,26,87
3107406,Bom Despacho,-19.684518791331346,-45.28611536567363,False,31,37
3300506,Bom Jardim,-22.199748096511968,-42.37172628585089,False,33,22
2602209,Bom Jardim,-7.78552061173765,-35.58630333227193,False,26,81
2102002,Bom Jardim,-3.9001459593471433,-46.41828337940981,False,21,98
4202503,Bom Jardim da Serra,-28.361004610413175,-49.652451917537114,False,42,49
5203401,Bom Jardim de Goiás,-16.16860947057232,-52.073394298127106,False,52,64
3107505,Bom Jardim de Minas,-21.950061491452654,-44.126964236148524,False,31,32
4202537,Bom Jesus,-26.739041890224197,-52.38999113421984,False,42,49
4302303,Bom Jesus,-28.598161587994333,-50.42326882534534,False,43,54
2201903,Bom Jesus,-9.245738493292603,-44.54020033007467,False,22,89
2401701,Bom Jesus,-6.000815611299103,-35.59079390877781,False,24,84
2502201,Bom Jesus,-6.8227794740430525,-38.63020674340378,False,25,83
2903904,Bom Jesus da Lapa,-13.277058247126652,-43.29335566498267,False,29,77
3107604,Bom Jesus da Penha,-21.01376369131572,-46.52905405037327,False,31,35
2903953,Bom Jesus da Serra,-14.389879780991018,-40.57732566144089,False,29,77
2102036,Bom Jesus das Selvas,-4.600807334433574,-46.688638964145056,False,21,98
5203500,Bom Jesus de Goiás,-18.189204708655964,-49.87850481347114,False,52,64
3107703,Bom Jesus do Amparo,-19.717667458181797,-43.46864166586827,False,31,31
5101852,Bom Jesus do Araguaia,-12.217808976938029,-51.739477996561746,False,51,66
3107802,Bom Jesus do Galho,-19.742309052663845,-42.35104109195264,False,31,33
3300605,Bom Jesus do Itabapoana,-21.123462538715028,-41.68320075439917,False,33,22
3201100,Bom Jesus do Norte,-21.084462715188636,-41.63384047356525,False,32,28
4202578,Bom Jesus do Oeste,-26.684020819426294,-53.09528807360874,False,42,49
4103156,Bom Jesus do Sul,-26.163059411089048,-53.552978997235584,False,41,46
1501576,Bom Jesus do Tocantins,-5.054266705813224,-48.76351444668919,False,15,94
1703305,Bom Jesus do Tocantins,-9.012406581085227,-47.87922005881252,False,17,63
3507100,Bom Jesus dos Perdões,-23.172519992419748,-46.47897886577842,False,35,11
2102077,Bom Lugar,-4.346633525376349,-45.02096519721611,False,21,99
4302352,Bom Princípio,-29.471108536945255,-51.36305092269988,False,43,51
2201919,Bom Princípio do Piauí,-3.1574074894105055,-41.630631227983216,False,22,86
4302378,Bom Progresso,-27.545263669406157,-53.84892695952554,False,43,55
3107901,Bom Repouso,-22.445809489433426,-46.18439034891156,False,31,35
4202602,Bom Retiro,-27.78535988784231,-49.56300898625278,False,42,49
4302402,Bom Retiro do Sul,-29.637733718252065,-51.92256633039676,False,43,51
3108008,Bom Sucesso,-21.0263622562268,-44.78417613900244,False,31,35
4103206,Bom Sucesso,-23.71305229790698,-51.824267591200076,False,41,43
2502300,Bom Sucesso,-6.474820955902279,-37.947785223958746,False,25,83
3507159,Bom Sucesso de Itararé,-24.315936152472705,-49.16457958899071,False,35,15
4103222,Bom Sucesso do Sul,-26.086065915958137,-52.83882680742741,False,41,46
4202453,Bombinhas,-27.1732563314502,-48.517487094225075,False,42,47
1400159,Bonfim,2.787602112105999,-60.100616004620484,False,14,95
3108107,Bonfim,-20.32145029693183,-44.21475915603958,False,31,31
2201929,Bonfim do Piauí,-9.17135676645205,-42.87580859235408,False,22,89
5203559,Bonfinópolis,-16.60172569144225,-49.00972712625819,False,52,62
3108206,Bonfinópolis de Minas,-16.486351988830375,-46.19038948151744,False,31,38
2904001,Boninal,-12.776672591220441,-41.80249758273027,False,29,75
2602308,Bonito,-8.495014455133433,-35.70876404929525,False,26,81
2904050,Bonito,-11.969278073411248,-41.320413773389774,False,29,75
1501600,Bonito,-1.3873373662563073,-47.30228049378821,False,15,91
5002209,Bonito,-21.03321246336782,-56.48276065949264,False,50,67
3108255,Bonito de Minas,-14.992765014661012,-44.89675539280019,False,31,38
2502409,Bonito de Santa Fé,-7.289281937951233,-38.478189708529676,False,25,83
5203575,Bonópolis,-13.571308319842533,-49.86245130175629,False,52,62
2502508,Boqueirão,-7.506596296433539,-36.14987405288675,False,25,83
4302451,Boqueirão do Leão,-29.3035888092875,-52.41655087214805,False,43,51
2201945,Boqueirão do Piauí,-4.5401838726430075,-42.11151073025955,False,22,86
2800670,Boquim,-11.120349607462119,-37.596976245207486,False,28,79
2904100,Boquira,-12.741119702471025,-42.72228870709746,False,29,77
3507209,Borá,-22.244216994185525,-50.50212705702765,False,35,18
3507308,Boracéia,-22.170147353883063,-48.78833118193747,False,35,14
1300805,Borba,-4.9576174427806485,-59.53469392274654,False,13,92
2502706,Borborema,-6.79407448012649,-35.60123383071454,False,25,83
3507407,Borborema,-21.61077696710439,-49.07199112772394,False,35,16
3108305,Borda da Mata,-22.256554051360975,-46.15178474814163,False,31,35
3507456,Borebi,-22.68066749427653,-48.99231978240258,False,35,14
4103305,Borrazópolis,-23.939180275621567,-51.59197927254345,False,41,43
4302501,Bossoroca,-28.661747607338224,-54.9713888429793,False,43,55
3108404,Botelhos,-21.636373976274758,-46.41944725176455,False,31,35
3507506,Botucatu,-22.863442195558434,-48.46832192899482,False,35,14
3108503,Botumirim,-16.937849353914324,-43.00563895452342,False,31,38
2904209,Botuporã,-13.326230127823113,-42.53470606022199,False,29,77
4202701,Botuverá,-27.21857609828059,-49.12352579934664,False,42,47
4302584,Bozano,-28.354318581999056,-53.75177899669171,False,43,55
4202800,Braço do Norte,-28.240945449192917,-49.14236463836878,False,42,48
4202859,Braço do Trombudo,-27.368598549079167,-49.90361664522798,False,42,47
4302600,Braga,-27.58119806429445,-53.74215496250054,False,43,55
1501709,Bragança,-1.1930864540958375,-46.76358127039362,False,15,91
3507605,Bragança Paulista,-22.93835378877669,-46.55594757005952,False,35,11
4103354,Braganey,-24.80134662464196,-53.09049473615442,False,41,45
2701100,Branquinha,-9.2229956657119,-36.042092610899545,False,27,82
3108701,Brás Pires,-20.87512416575969,-43.2274505139773,False,31,32
1501725,Brasil Novo,-3.2921062905626695,-52.68540476045871,False,15,93
5002308,Brasilândia,-21.07594842357496,-52.434007416021245,False,50,67
3108552,Brasilândia de Minas,-16.956983400168525,-45.90247805763555,False,31,38
4103370,Brasilândia do Sul,-24.16608712444306,-53.54169619172954,False,41,44
1703602,Brasilândia do Tocantins,-8.289902277726073,-48.4427929252666,False,17,63
1200104,Brasiléia,-10.747372743953498,-69.20749155498599,False,12,68
2201960,Brasileira,-4.120829102264082,-41.63662125115703,False,22,86
5300108,Brasília,-15.781166211741136,-47.79685086594252,True,53,61
3108602,Brasília de Minas,-16.242705993066732,-44.43912083135518,False,31,38
5101902,Brasnorte,-12.423103822461854,-57.99883674298942,False,51,66
3507704,Braúna,-21.553107017208553,-50.33939249339483,False,35,18
3108800,Braúnas,-19.02572550303989,-42.716429599156854,False,31,35
5203609,Brazabrantes,-16.386133230812472,-49.37739853307146,False,52,62
3108909,Brazópolis,-22.491169630926414,-45.62792745299105,False,31,33
2602407,Brejão,-9.026748179633575,-36.52986982194677,False,26,87
3201159,Brejetuba,-20.125373899026616,-41.29693939581879,False,32,27
2401800,Brejinho,-6.218173495327502,-35.38358704721256,False,24,84
2602506,Brejinho,-7.33667386976822,-37.320863092920376,False,26,87
1703701,Brejinho de Nazaré,-11.029270786227555,-48.624126779700354,False,17,63
2102101,Brejo,-3.687016474656476,-42.828511425095485,False,21,98
3507753,Brejo Alegre,-21.176553748802398,-50.209780595678964,False,35,18
2602605,Brejo da Madre de Deus,-8.07565421616787,-36.281491842924964,False,26,81
2102150,Brejo de Areia,-4.365104263381319,-45.65005878528383,False,21,98
2502805,Brejo do Cruz,-6.329716140482348,-37.49700409708145,False,25,83
2201988,Brejo do Piauí,-8.382423540144533,-42.790948647643035,False,22,89
2502904,Brejo dos Santos,-6.398442125561851,-37.84655474627307,False,25,83
2800704,Brejo Grande,-10.477277379768227,-36.4739331688955,False,28,79
1501758,Brejo Grande do Araguaia,-5.735505911184291,-48.43188845156141,False,15,94
2302503,Brejo Santo,-7.555740045467475,-38.92125772909422,False,23,88
2904308,Brejões,-13.075373924572029,-39.85078350270389,False,29,75
2904407,Brejolândia,-12.499373796711605,-43.824763794898985,False,29,77
1501782,Breu Branco,-3.7334961460070586,-49.371209913158935,False,15,94
1501808,Breves,-1.1209074308976537,-50.62814433214998,False,15,91
5203807,Britânia,-15.23720509672222,-51.2082580435777,False,52,62
4302659,Brochier,-29.537030948676087,-51.62229085343526,False,43,51
3507803,Brodowski,-21.049535093303323,-47.62777221327206,False,35,16
3507902,Brotas,-22.27329070026294,-48.081225406332216,False,35,14
2904506,Brotas de Macaúbas,-12.089277435662746,-42.447036096033095,False,29,77
3109006,Brumadinho,-20.177826023552083,-44.12267572770659,False,31,31
2904605,Brumado,-14.167942961182787,-41.68907665083313,False,29,77
4202875,Brunópolis,-27.34696788582462,-50.84496052934929,False,42,49
4202909,Brusque,-27.125000078980896,-48.90974339113123,False,42,47
3109105,Bueno Brandão,-22.48608808718612,-46.35525243402697,False,31,35
3109204,Buenópolis,-17.880520163630475,-44.041380250664616,False,31,38
2602704,Buenos Aires,-7.737919251217831,-35.34723931729863,False,26,81
2904704,Buerarema,-14.99644315672435,-39.26957771456348,False,29,73
3109253,Bugre,-19.357673010852743,-42.310999992620005,False,31,33
2602803,Buíque,-8.64999327948904,-37.12266790251496,False,26,87
1200138,Bujari,-9.614070641654065,-68.1736633186292,False,12,68
1501907,Bujaru,-1.6329668443251586,-48.089880582129325,False,15,91
3508009,Buri,-23.752029645195602,-48.575311319017814,False,35,15
3508108,Buritama,-21.04911355485293,-50.200220901773065,False,35,18
2102200,Buriti,-3.900464611550166,-43.001512332105534,False,21,98
5203906,Buriti Alegre,-18.125666256064736,-49.00773472554673,False,52,64
2102309,Buriti Bravo,-5.789193801475244,-43.83042438766027,False,21,99
5203939,Buriti de Goiás,-16.169531423635885,-50.453391639166576,False,52,64
1703800,Buriti do Tocantins,-5.337668758500894,-48.13631398342906,False,17,63
2202000,Buriti dos Lopes,-3.239248607452181,-41.80418038293842,False,22,86
2202026,Buriti dos Montes,-5.162304141699467,-41.19988057305553,False,22,86
2102325,Buriticupu,-4.49235638990982,-46.34251151652202,False,21,98
5203962,Buritinópolis,-14.406742893594325,-46.29676042795083,False,52,62
2904753,Buritirama,-10.588126005555596,-43.667629728561685,False,29,77
2102358,Buritirana,-5.5182514124626305,-47.06179327055553,False,21,99
1100452,Buritis,-10.052115284701472,-63.94116273940971,False,11,69
3109303,Buritis,-15.453171714783737,-46.60436826906234,False,31,38
3508207,Buritizal,-20.20931774005688,-47.692934174283394,False,35,16
3109402,Buritizeiro,-17.28605334611553,-45.19181003082328,False,31,38
4302709,Butiá,-30.18359316428115,-52.004833773761355,False,43,51
1300839,Caapiranga,-3.0820189969580163,-61.877757809622175,False,13,92
2503001,Caaporã,-7.48676926303142,-34.918939702993356,False,25,83
5002407,Caarapó,-22.588311931854186,-54.802757286931374,False,50,67
2904803,Caatiba,-14.99580249163568,-40.364107445647726,False,29,77
2503100,Cabaceiras,-7.451007370289749,-36.29889610996725,False,25,83
2904852,Cabaceiras do Paraguaçu,-12.564274442754439,-39.192484590362206,False,29,75
3109451,Cabeceira Grande,-16.076193178267793,-47.12369820132683,False,31,38
5204003,Cabeceiras,-15.76053271782156,-46.99274033226063,False,52,61
2202059,Cabeceiras do Piauí,-4.432025947562207,-42.33367937881637,False,22,86
2503209,Cabedelo,-7.027743654081104,-34.8475664873387,False,25,83
1100031,Cabixi,-13.474878560170096,-60.639807221869695,False,11,69
2602902,Cabo de Santo Agostinho,-8.269220154488327,-35.08591917699606,False,26,81
3300704,Cabo Frio,-22.711816549271145,-42.05697348511326,False,33,22
3109501,Cabo Verde,-21.48156601747621,-46.3914901872536,False,31,35
3508306,Cabrália Paulista,-22.489451244759163,-49.372990651332074,False,35,14
3508405,Cabreúva,-23.301306221694485,-47.080205828197705,False,35,11
2603009,Cabrobó,-8.38647035557334,-39.329428046411785,False,26,87
4203006,Caçador,-26.76301573728608,-51.084665229690195,False,42,49
3508504,Caçapava,-23.103727576357517,-45.713307375480554,False,35,12
4302808,Caçapava do Sul,-30.593392292493064,-53.47782728846417,False,43,55
1100601,Cacaulândia,-10.331591639696581,-62.987229813743056,False,11,69
4302907,Cacequi,-29.92042779869776,-54.80280959676569,False,43,55
5102504,Cáceres,-16.53753883890058,-57.83353835682867,False,51,65
2904902,Cachoeira,-12.64670691102816,-38.884876182831874,False,29,75
5204102,Cachoeira Alta,-18.542195526897835,-50.98216938475693,False,52,64
3109600,Cachoeira da Prata,-19.517000993344173,-44.47199782640778,False,31,31
5204201,Cachoeira de Goiás,-16.719484784609495,-50.69883990200169,False,52,64
3109709,Cachoeira de Minas,-22.362450257428915,-45.792800709205395,False,31,35
3102704,Cachoeira de Pajeú,-15.968511779126429,-41.4980014079966,False,31,33
1502004,Cachoeira do Arari,-0.8694236066715426,-48.87724142384621,False,15,91
1501956,Cachoeira do Piriá,-1.988673647395988,-46.44321356114831,False,15,91
4303004,Cachoeira do Sul,-30.206195045816646,-52.986450425629684,False,43,51
2503308,Cachoeira dos Índios,-6.946006379121283,-38.695652822821806,False,25,83
5204250,Cachoeira Dourada,-18.490241072845343,-49.62294570688432,False,52,64
3109808,Cachoeira Dourada,-18.607331053511164,-49.47892002701274,False,31,34
2102374,Cachoeira Grande,-3.120087674995158,-43.9309336089474,False,21,98
3508603,Cachoeira Paulista,-22.70237624434326,-44.991669926781114,False,35,12
3300803,Cachoeiras de Macacu,-22.516120623912627,-42.72841080713263,False,33,21
1703826,Cachoeirinha,-6.09000861696758,-47.84133600374484,False,17,63
2603108,Cachoeirinha,-8.484928158833267,-36.290944698308735,False,26,81
4303103,Cachoeirinha,-29.92091070595413,-51.09531520905746,False,43,51
3201209,Cachoeiro de Itapemirim,-20.766111249748732,-41.190996674175196,False,32,28
2503407,Cacimba de Areia,-7.138734212081912,-37.17362142637229,False,25,83
2503506,Cacimba de Dentro,-6.624581762881533,-35.81368324126439,False,25,83
2503555,Cacimbas,-7.209450794652229,-37.090410929672416,False,25,83
2701209,Cacimbinhas,-9.446821484229368,-36.92182514263397,False,27,82
4303202,Cacique Doble,-27.813959700627688,-51.6769561676806,False,43,54
1100049,Cacoal,-11.301287369709542,-61.3247287345869,False,11,69
3508702,Caconde,-21.539514461071178,-46.617038225157415,False,35,19
5204300,Caçu,-18.70067943328867,-51.131177178707695,False,52,64
2905008,Caculé,-14.48288983837313,-42.28504991977291,False,29,77
2905107,Caém,-11.143066632149047,-40.29110414948324,False,29,74
3109907,Caetanópolis,-19.34251063141551,-44.40344058166701,False,31,31
2905156,Caetanos,-14.313668734377377,-40.92674899744892,False,29,77
3110004,Caeté,-19.867771882838866,-43.63688708213592,False,31,31
2603207,Caetés,-8.803950781240715,-36.659187139248786,False,26,87
2905206,Caetité,-13.947967788091777,-42.47663749971429,False,29,77
2905305,Cafarnaum,-11.733821920201448,-41.50144872792596,False,29,74
4103404,Cafeara,-22.81307164743436,-51.711247879805086,False,41,43
3508801,Cafelândia,-21.731145814978547,-49.548684420789264,False,35,14
4103453,Cafelândia,-24.691942956487697,-53.36442609215868,False,41,45
4103479,Cafezal do Sul,-23.939412698062036,-53.56164167583393,False,41,44
3508900,Caiabu,-21.949764220284326,-51.22388871962759,False,35,18
3110103,Caiana,-20.72531025153291,-41.90841544584499,False,31,32
5204409,Caiapônia,-17.00710070935681,-51.81475952042309,False,52,64
4303301,Caibaté,-28.335334647703167,-54.655271647549164,False,43,55
4203105,Caibi,-27.025175522398243,-53.26305757845932,False,42,49
4303400,Caiçara,-27.24652209308431,-53.466587168581455,False,43,55
2503605,Caiçara,-6.606275561474497,-35.4117248682378,False,25,83
2401859,Caiçara do Norte,-5.1918403926819945,-36.08329556422504,False,24,84
2401909,Caiçara do Rio do Vento,-5.766087601654825,-36.026461851097864,False,24,84
2402006,Caicó,-6.4675618430097614,-37.03794347924503,False,24,84
3509007,Caieiras,-23.37593180857558,-46.74522650253992,False,35,11
2905404,Cairu,-13.506862246837073,-38.98342849483828,False,29,75
3509106,Caiuá,-21.80145656425833,-51.98663846243034,False,35,18
3509205,Cajamar,-23.351431717354604,-46.87203499010904,False,35,11
2102408,Cajapió,-2.8744429792168518,-44.59876863548839,False,21,98
2102507,Cajari,-3.390636307241569,-45.05272627774089,False,21,98
3509254,Cajati,-24.77204177188439,-48.195015227200784,False,35,13
2503704,Cajazeiras,-6.919851650579052,-38.54098915944146,False,25,83
2202075,Cajazeiras do Piauí,-6.7818584151397765,-42.45931131551862,False,22,89
2503753,Cajazeirinhas,-6.958976609137172,-37.80341694339005,False,25,83
3509304,Cajobi,-20.87367604642384,-48.83876505123303,False,35,17
2701308,Cajueiro,-9.390372241031152,-36.15781424069135,False,27,82
2202083,Cajueiro da Praia,-2.9927054437436342,-41.36160271577283,False,22,86
3110202,Cajuri,-20.785307352315638,-42.76415306597124,False,31,31
3509403,Cajuru,-21.275957980191617,-47.31029385278858,False,35,16
2603306,Calçado,-8.750282146474493,-36.32186834938066,False,26,87
1600204,Calçoene,2.4238439758648638,-51.406647918279035,False,16,96
3110301,Caldas,-21.890802545579604,-46.36371071216818,False,31,35
2503803,Caldas Brandão,-7.121062772844855,-35.33921975008169,False,25,83
5204508,Caldas Novas,-17.709551255725774,-48.64632817365037,False,52,64
5204557,Caldazinha,-16.742390494508637,-48.97184611437636,False,52,62
2905503,Caldeirão Grande,-11.039859488293322,-40.22183030580453,False,29,74
2202091,Caldeirão Grande do Piauí,-7.307999167000778,-40.622807925609436,False,22,89
4103503,Califórnia,-23.668785160753142,-51.33383832074409,False,41,43
4203154,Calmon,-26.62215560250456,-51.006865675546905,False,42,49
2603405,Calumbi,-8.003915849265724,-38.07868288026561,False,26,87
2905602,Camacan,-15.444373396122817,-39.518676562235726,False,29,73
2905701,Camaçari,-12.666028868992546,-38.206311773502115,False,29,71
3110400,Camacho,-20.640841121799642,-45.132175002846274,False,31,37
2503902,Camalaú,-7.8998453451472885,-36.797170232197395,False,25,83
2905800,Camamu,-14.01255182900073,-39.16418599471529,False,29,73
3110509,Camanducaia,-22.786866672552968,-46.0747809550924,False,31,35
5002605,Camapuã,-19.341925446662405,-53.86951562761658,False,50,67
4303509,Camaquã,-30.922686442046807,-51.7884441030519,False,43,51
2603454,Camaragibe,-7.986775525551918,-34.99581176965038,False,26,81
4303558,Camargo,-28.61639643114418,-52.2212572128711,False,43,54
4103602,Cambará,-22.997005979025236,-50.08282684732527,False,41,43
4303608,Cambará do Sul,-29.058167588830738,-50.13527134718792,False,43,54
4103701,Cambé,-23.179759235310716,-51.28431522428851,False,41,43
4103800,Cambira,-23.63061676009647,-51.566727429248346,False,41,43
4203204,Camboriú,-27.07093870658813,-48.70898929172539,False,42,47
3300902,Cambuci,-21.496917145777008,-41.91465189782416,False,33,22
3110608,Cambuí,-22.582710511815314,-46.07833463119889,False,31,35
3110707,Cambuquira,-21.8589544303335,-45.26183494523892,False,31,35
1502103,Cametá,-2.2529841794210768,-49.51353544942789,False,15,91
2302602,Camocim,-2.9498067990764603,-40.80089121264126,False,23,88
2603504,Camocim de São Félix,-8.34999799410076,-35.77206587314986,False,26,81
3110806,Campanário,-18.283968533845993,-41.73441831377024,False,31,33
3110905,Campanha,-21.8439063384249,-45.40845080694975,False,31,35
3111002,Campestre,-21.710404379270912,-46.22148743658338,False,31,35
2701357,Campestre,-8.89282344928437,-35.54124155653834,False,27,82
4303673,Campestre da Serra,-28.72621576155683,-51.098751852308105,False,43,54
5204607,Campestre de Goiás,-16.78796826655349,-49.6996249490505,False,52,62
2102556,Campestre do Maranhão,-6.1761983696507095,-47.2638459328494,False,21,99
4103909,Campina da Lagoa,-24.61660856675558,-52.78832143398727,False,41,44
4303707,Campina das Missões,-27.962995692249645,-54.83410195949724,False,43,55
3509452,Campina do Monte Alegre,-23.606825274693513,-48.442034607666635,False,35,15
4103958,Campina do Simão,-25.130832968588287,-51.782040238562686,False,41,42
2504009,Campina Grande,-7.2635534262477135,-35.965658862039945,False,25,83
4104006,Campina Grande do Sul,-25.18649723766804,-48.84453868073336,False,41,41
3111101,Campina Verde,-19.47913007451492,-49.81000645517247,False,31,34
5204656,Campinaçu,-13.884494296728473,-48.568225659106844,False,52,62
5102603,Campinápolis,-14.374608040964276,-53.12838090114024,False,51,66
3509502,Campinas,-22.883760077966766,-47.04379960562908,False,35,19
2202109,Campinas do Piauí,-7.656540622611527,-41.87137290470887,False,22,89
4303806,Campinas do Sul,-27.7362595076202,-52.657459190872885,False,43,54
5204706,Campinorte,-14.04521538525961,-48.97453734050272,False,52,62
4203303,Campo Alegre,-26.120796836123088,-49.21761074543456,False,42,47
2701407,Campo Alegre,-9.814854038906129,-36.282927353324624,False,27,82
5204805,Campo Alegre de Goiás,-17.551005393170048,-47.76822854267041,False,52,64
2905909,Campo Alegre de Lourdes,-9.561569460627844,-43.158867165016694,False,29,74
2202117,Campo Alegre do Fidalgo,-8.282815211834565,-41.82147608972225,False,22,89
3111150,Campo Azul,-16.50875052976482,-44.76332141789313,False,31,38
3111200,Campo Belo,-20.919680150573363,-45.25590069844617,False,31,35
4203402,Campo Belo do Sul,-27.847014439117487,-50.77112433588914,False,42,49
4303905,Campo Bom,-29.672685986180262,-51.048547408082676,False,43,51
4104055,Campo Bonito,-24.93124060959111,-53.01390224223302,False,41,45
2801009,Campo do Brito,-10.766321901725254,-37.500661669108084,False,28,79
3111309,Campo do Meio,-21.113603126971334,-45.84963808642711,False,31,35
4104105,Campo do Tenente,-25.97784807305638,-49.65639873334327,False,41,41
4203501,Campo Erê,-26.45041878576801,-53.130290278237815,False,42,49
3111408,Campo Florido,-19.71341321135195,-48.647836616758475,False,31,34
2906006,Campo Formoso,-10.251062587360542,-40.728936454550556,False,29,74
2701506,Campo Grande,-9.967200324555801,-36.74632686130312,False,27,82
5002704,Campo Grande,-20.913620182105767,-54.24945925718284,True,50,67
2202133,Campo Grande do Piauí,-7.183177228952812,-41.06532431926594,False,22,89
4104204,Campo Largo,-25.29241804047677,-49.618774102183195,False,41,41
2202174,Campo Largo do Piauí,-3.881033614508693,-42.546047479880144,False,22,86
5204854,Campo Limpo de Goiás,-16.286653484426495,-49.10264214465934,False,52,62
3509601,Campo Limpo Paulista,-23.21791797735199,-46.76005648382966,False,35,11
4104253,Campo Magro,-25.289674753587963,-49.462702279859585,False,41,41
2202208,Campo Maior,-4.876998617745956,-42.14499906885232,False,22,86
4104303,Campo Mourão,-24.1024940527268,-52.380703146717806,False,41,44
4304002,Campo Novo,-27.668328348542094,-53.824605042040815,False,43,55
1100700,Campo Novo de Rondônia,-10.484933973587198,-63.79971647299539,False,11,69
5102637,Campo Novo do Parecis,-13.688299609878676,-57.930953348576196,False,51,65
2402105,Campo Redondo,-6.237706801672436,-36.20889464209088,False,24,84
5102678,Campo Verde,-15.344758468772062,-54.958077625908516,False,51,66
3111507,Campos Altos,-19.6048576993935,-46.19705126889484,False,31,37
5204904,Campos Belos,-12.999942701795925,-46.510750653335826,False,52,62
4304101,Campos Borges,-28.90561407604302,-53.05772631117551,False,43,54
5102686,Campos de Júlio,-13.579846019200172,-59.19305440649616,False,51,65
3509700,Campos do Jordão,-22.701628023156722,-45.533069047114324,False,35,12
3301009,Campos dos Goytacazes,-21.74766130917149,-41.40409215780555,False,33,22
3111606,Campos Gerais,-21.258848284534817,-45.753586748521506,False,31,35
1703842,Campos Lindos,-8.203799017833527,-46.80458426664566,False,17,63
4203600,Campos Novos,-27.4130033354672,-51.24459056294277,False,42,49
3509809,Campos Novos Paulista,-22.610867496448925,-50.010281929606094,False,35,14
2302701,Campos Sales,-6.936725340922947,-40.27133195533032,False,23,88
5204953,Campos Verdes,-14.199788878864451,-49.65971492489412,False,52,62
2603603,Camutanga,-7.433911069413291,-35.29918671925835,False,26,81
3111903,Cana Verde,-21.033110890411464,-45.18570720418818,False,31,35
3111705,Canaã,-20.666799586114017,-42.621833719700085,False,31,31
1502152,Canaã dos Carajás,-6.4242098879718945,-50.08567061183447,False,15,94
5102694,Canabrava do Norte,-11.201583088900431,-51.82363386826014,False,51,66
3509908,Cananéia,-25.018446389792132,-48.008566503773544,False,35,13
2701605,Canapi,-9.12472535815216,-37.528097640382505,False,27,82
2906105,Canápolis,-13.096592135471994,-44.20355996147643,False,29,77
3111804,Canápolis,-18.757897828044612,-49.27187533589717,False,31,34
2906204,Canarana,-11.752948743996274,-41.699629484780516,False,29,74
5102702,Canarana,-13.329839414144713,-52.39891540401068,False,51,66
3509957,Canas,-22.730070281381632,-45.04135635657696,False,35,12
2202251,Canavieira,-7.557716279237295,-43.5586114396646,False,22,89
2906303,Canavieiras,-15.651538760968219,-39.10882500860617,False,29,73
2906402,Candeal,-11.871119540549426,-39.19075804682022,False,29,75
2906501,Candeias,-12.678478932067039,-38.48116112514613,False,29,71
3112000,Candeias,-20.748495745560014,-45.279578271246805,False,31,35
1100809,Candeias do Jamari,-8.88699692291957,-63.32560988847697,False,11,69
4304200,Candelária,-29.700363968343247,-52.81321928452406,False,43,51
2906600,Candiba,-14.404201939060307,-42.831740198227955,False,29,77
4104402,Cândido de Abreu,-24.64547082177295,-51.25326315755973,False,41,43
4304309,Cândido Godói,-27.933713839894292,-54.719477799415195,False,43,55
2102606,Cândido Mendes,-1.618371739503562,-45.67706500530428,False,21,98
3510005,Cândido Mota,-22.808684620694482,-50.42167474918415,False,35,18
3510104,Cândido Rodrigues,-21.34283279993379,-48.628624007424925,False,35,16
2906709,Cândido Sales,-15.355082379824749,-41.269495004490565,False,29,77
4304358,Candiota,-31.554434760596028,-53.74571959152104,False,43,53
4104428,Candói,-25.52433633137051,-52.02087721823974,False,41,42
4304408,Canela,-29.35136833431944,-50.77515038803965,False,43,54
4203709,Canelinha,-27.234583779439927,-48.80235247055214,False,42,48
2402204,Canguaretama,-6.395087546680694,-35.148459981536824,False,24,84
4304507,Canguçu,-31.21739792897377,-52.66950984805046,False,43,53
2801108,Canhoba,-10.148392689469112,-37.000737571525065,False,28,79
2603702,Canhotinho,-8.893141477104555,-36.17692103503222,False,26,87
2302800,Canindé,-4.402118968637771,-39.430352099537544,False,23,85
2801207,Canindé de São Francisco,-9.712949077245543,-37.89913547195742,False,28,79
3510153,Canitar,-23.018727031436406,-49.79187450428471,False,35,14
4304606,Canoas,-29.912214397543675,-51.17964521564398,False,43,51
4203808,Canoinhas,-26.249950008621425,-50.53337070429829,False,42,47
2906808,Cansanção,-10.726929006067635,-39.472719616936146,False,29,75
1400175,Cantá,2.272836716074814,-60.54228496996255,False,14,95
3301108,Cantagalo,-21.868354820799198,-42.33388680170832,False,33,22
4104451,Cantagalo,-25.290296550077397,-52.12829443640547,False,41,42
3112059,Cantagalo,-18.516132273636817,-42.648697062056954,False,31,33
2102705,Cantanhede,-3.6216116038066044,-44.26269032018666,False,21,98
2202307,Canto do Buriti,-8.342574647407686,-43.33760851987814,False,22,89
2906824,Canudos,-10.005931119246034,-38.9945168177632,False,29,75
4304614,Canudos do Vale,-29.327018923713677,-52.234170982296575,False,43,51
1300904,Canutama,-7.300758093431386,-64.06190340306851,False,13,97
1502202,Capanema,-1.1420838146748375,-47.117900909942975,False,15,91
4104501,Capanema,-25.610786532254398,-53.76309905973986,False,41,46
4203253,Capão Alto,-28.062181975368652,-50.6069120691402,False,42,49
3510203,Capão Bonito,-24.039201549842417,-48.28984088913948,False,35,15
4304622,Capão Bonito do Sul,-28.152387436266956,-51.38916558736447,False,43,54
4304630,Capão da Canoa,-29.67976135834868,-49.99980816209875,False,43,51
4304655,Capão do Cipó,-28.959292625654182,-54.58239888865687,False,43,55
4304663,Capão do Leão,-31.83334158406144,-52.53825551951163,False,43,53
3112109,Caparaó,-20.52721419352435,-41.94950688208333,False,31,32
2701704,Capela,-9.34511706474,-36.09172440981833,False,27,82
2801306,Capela,-10.468751165545223,-37.036344267099764,False,28,79
4304689,Capela de Santana,-29.705880464737955,-51.3574064677274,False,43,51
3510302,Capela do Alto,-23.467387857399608,-47.73098869032683,False,35,15
2906857,Capela do Alto Alegre,-11.672263313413081,-39.82496385280429,False,29,75
3112208,Capela Nova,-20.91733486286933,-43.608609925387235,False,31,31
3112307,Capelinha,-17.692873116102295,-42.491958855862,False,31,33
3112406,Capetinga,-20.657294040087304,-47.0317898126421,False,31,35
2504033,Capim,-6.9007664956997266,-35.16865013439337,False,25,83
3112505,Capim Branco,-19.570064027921838,-44.16769927250447,False,31,31
2906873,Capim Grosso,-11.30628838441489,-39.9959000888673,False,29,74
3112604,Capinópolis,-18.687228671825977,-49.58158882491806,False,31,34
4203907,Capinzal,-27.41192970912846,-51.6307298039898,False,42,49
2102754,Capinzal do Norte,-4.682126275678647,-44.30624111563129,False,21,99
2302909,Capistrano,-4.4678208853494175,-38.90794836163524,False,23,85
4304697,Capitão,-29.283199918939122,-51.98432138875785,False,43,51
3112653,Capitão Andrade,-19.05119749270443,-41.82215917913032,False,31,33
2202406,Capitão de Campos,-4.522732672120676,-41.90105226253759,False,22,86
3112703,Capitão Enéas,-16.13624217892287,-43.66465967965842,False,31,38
2202455,Capitão Gervásio Oliveira,-8.529253489926965,-41.90124155528279,False,22,89
4104600,Capitão Leônidas Marques,-25.46952089824217,-53.59283666669257,False,41,45
1502301,Capitão Poço,-2.0421650583747826,-47.23339596403543,False,15,91
3112802,Capitólio,-20.612656866654024,-46.144191795313475,False,31,37
3510401,Capivari,-22.980729489774404,-47.478018797974336,False,35,19
4203956,Capivari de Baixo,-28.45556383561091,-48.943384543497515,False,42,48
4304671,Capivari do Sul,-30.134843999585208,-50.51183643240139,False,43,51
1200179,Capixaba,-10.474320857523548,-67.83586975892908,False,12,68
2603801,Capoeiras,-8.686652233529436,-36.59917538512708,False,26,87
3112901,Caputira,-20.176478852405964,-42.25230995743183,False,31,31
4304713,Caraá,-29.772195102833077,-50.34176917036232,False,43,51
1400209,Caracaraí,0.9908428433318489,-61.47137209776068,False,14,95
2202505,Caracol,-9.089088192623834,-43.34672266655978,False,22,89
5002803,Caracol,-21.942575898929352,-57.09101217113679,False,50,67
3510500,Caraguatatuba,-23.639657616608606,-45.48810339092269,False,35,12
3113008,Caraí,-17.17358061190716,-41.58352186134263,False,31,33
2906899,Caraíbas,-14.62557041850365,-41.28371573753979,False,29,77
4104659,Carambeí,-24.893570543347128,-50.151618735484846,False,41,42
3113107,Caranaíba,-20.891210680107626,-43.720703213803674,False,31,31
3113206,Carandaí,-20.996681556723207,-43.844340614523716,False,31,32
3113305,Carangola,-20.70265764268629,-42.087521833199176,False,31,32
3300936,Carapebus,-22.195952965113833,-41.65090366845984,False,33,22
3510609,Carapicuíba,-23.550040639584136,-46.84192849442541,False,35,11
3113404,Caratinga,-19.712130031715873,-42.10195600910814,False,31,33
1301001,Carauari,-5.118516488728315,-67.33747163748187,False,13,97
2402303,Caraúbas,-5.767438084840192,-37.58371141708076,False,24,84
2504074,Caraúbas,-7.774098293466366,-36.50248319835686,False,25,83
2202539,Caraúbas do Piauí,-3.5648118918297924,-41.82428411398121,False,22,86
2906907,Caravelas,-17.65752485486905,-39.6888095259852,False,29,73
4304705,Carazinho,-28.277871024444888,-52.863608834500525,False,43,54
3113503,Carbonita,-17.494130058147835,-43.05771164685609,False,31,38
2907004,Cardeal da Silva,-12.043037097241456,-37.93842596226249,False,29,75
3510708,Cardoso,-20.067192891815807,-49.94758952903297,False,35,17
3301157,Cardoso Moreira,-21.52545358771301,-41.500296540344785,False,33,22
3113602,Careaçu,-22.078619961937868,-45.66441935277071,False,31,35
1301100,Careiro,-3.770484300506862,-60.18327327333478,False,13,92
1301159,Careiro da Várzea,-3.286012049598809,-59.5986770166085,False,13,92
3201308,Cariacica,-20.29068700090371,-40.44204912559446,False,32,27
2303006,Caridade,-4.203797969533927,-39.10989590704196,False,23,85
2202554,Caridade do Piauí,-7.70361368037788,-40.95583764784017,False,22,89
2907103,Carinhanha,-14.020546034950197,-43.848935218797195,False,29,77
2801405,Carira,-10.363727297970323,-37.710561313688395,False,28,79
2303105,Cariré,-3.951874312983803,-40.52168838340297,False,23,88
1703867,Cariri do Tocantins,-11.933027598267232,-49.202777775904195,False,17,63
2303204,Caririaçu,-7.02181298100312,-39.274879895029244,False,23,88
2303303,Cariús,-6.642002656281442,-39.46411006355057,False,23,88
5102793,Carlinda,-10.106383085552016,-55.83415923674596,False,51,66
4104709,Carlópolis,-23.459702187136273,-49.712776240352106,False,41,43
4304804,Carlos Barbosa,-29.321363936700077,-51.50317664670043,False,43,54
3113701,Carlos Chagas,-17.674179943147028,-40.84200603657075,False,31,33
4304853,Carlos Gomes,-27.7032926493176,-51.92986395558893,False,43,54
3113800,Carmésia,-19.060346507920197,-43.17444066514493,False,31,31
3301207,Carmo,-21.89542013422818,-42.56641216333769,False,33,22
3113909,Carmo da Cachoeira,-21.45396371098566,-45.19643413367239,False,31,35
3114006,Carmo da Mata,-20.559671945366063,-44.89182380051483,False,31,37
3114105,Carmo de Minas,-22.091998283543532,-45.16150913055784,False,31,35
3114204,Carmo do Cajuru,-20.19647649600987,-44.70114995012067,False,31,37
3114303,Carmo do Paranaíba,-18.907661448293062,-46.185184702063424,False,31,34
3114402,Carmo do Rio Claro,-20.972103821499992,-46.09910124150259,False,31,35
5205000,Carmo do Rio Verde,-15.42498189201288,-49.74274192731749,False,52,62
1703883,Carmolândia,-7.045120555177116,-48.37454302620976,False,17,63
2801504,Carmópolis,-10.664601614484182,-36.96607068407178,False,28,79
3114501,Carmópolis de Minas,-20.561910500182147,-44.647856647488744,False,31,37
2603900,Carnaíba,-7.79524203106058,-37.72676835581342,False,26,87
2402402,Carnaúba dos Dantas,-6.553298657209281,-36.54880303453573,False,24,84
2402501,Carnaubais,-5.2640807548244055,-36.857292043289156,False,24,84
2303402,Carnaubal,-4.130119241586082,-41.01020758578312,False,23,88
2603926,Carnaubeira da Penha,-8.409135184544684,-38.7215776541086,False,26,87
3114550,Carneirinho,-19.750240218121327,-50.82981828322676,False,31,34
2701803,Carneiros,-9.461961141441002,-37.36577253551432,False,27,82
1400233,Caroebe,0.914630834115852,-59.338169978339984,False,14,95
2102804,Carolina,-7.376407568904774,-47.211242664395215,False,21,99
2604007,Carpina,-7.819232870835141,-35.30606143450488,False,26,81
3114600,Carrancas,-21.496353385181322,-44.61208271680474,False,31,35
2504108,Carrapateira,-7.044461342198988,-38.337539396050026,False,25,83
1703891,Carrasco Bonito,-5.33717279808604,-48.009925449508714,False,17,63
2604106,Caruaru,-8.179874542702992,-36.01744931734845,False,26,81
2102903,Carutapera,-1.350071158046729,-46.029439184374375,False,21,98
3114709,Carvalhópolis,-21.772818329618012,-45.83051426754938,False,31,35
3114808,Carvalhos,-22.02256039489155,-44.48860863220002,False,31,35
3510807,Casa Branca,-21.800547591919024,-47.088127158425934,False,35,19
3114907,Casa Grande,-20.836185700867414,-43.9380173569733,False,31,31
2907202,Casa Nova,-9.240251461679625,-41.336482050490766,False,29,74
4304903,Casca,-28.594386256594,-51.967202870140405,False,43,54
3115003,Cascalho Rico,-18.568644576972343,-47.876955456912896,False,31,34
4104808,Cascavel,-25.027777145539062,-53.379554768224644,False,41,45
2303501,Cascavel,-4.239086695098207,-38.29708705879747,False,23,85
1703909,Caseara,-9.401668362485703,-49.84857197003922,False,17,63
4304952,Caseiros,-28.248373912930358,-51.73703856229966,False,43,54
3301306,Casimiro de Abreu,-22.481863615237987,-42.144238757321354,False,33,22
2604155,Casinhas,-7.756042190957638,-35.72038368234764,False,26,81
2504157,Casserengue,-6.755035070266457,-35.84317269454338,False,25,83
3115102,Cássia,-20.542592501621915,-46.92900699449452,False,31,35
3510906,Cássia dos Coqueiros,-21.263279011655744,-47.14409073650122,False,35,16
5002902,Cassilândia,-19.097582207934927,-52.17351112973126,False,50,67
1502400,Castanhal,-1.2685148660568735,-47.8769807743401,False,15,91
5102850,Castanheira,-10.940726042643854,-58.6027972382551,False,51,66
1100908,Castanheiras,-11.470802268870994,-61.88006978295182,False,11,69
5205059,Castelândia,-18.15633392648423,-50.34003409645763,False,52,64
3201407,Castelo,-20.55172690902782,-41.203972569704256,False,32,28
2202604,Castelo do Piauí,-5.326581083573658,-41.567004036388205,False,22,86
3511003,Castilho,-20.89761044524839,-51.570251859882205,False,35,18
4104907,Castro,-24.799608689769503,-49.84167199474595,False,41,42
2907301,Castro Alves,-12.731625578505234,-39.36399699604037,False,29,75
3115300,Cataguases,-21.342414860144576,-42.674057072387285,False,31,32
5205109,Catalão,-17.93088875065387,-47.6648644776611,False,52,64
3511102,Catanduva,-21.133764242293775,-48.963688357888174,False,35,17
4105003,Catanduvas,-25.241416751637068,-53.15569619897522,False,41,45
4204004,Catanduvas,-27.044998105636182,-51.69641103721684,False,42,49
2303600,Catarina,-6.2527866207684335,-39.90966244597313,False,23,88
3115359,Catas Altas,-20.07548971930999,-43.40778711444696,False,31,31
3115409,Catas Altas da Noruega,-20.669584766488576,-43.49997697328979,False,31,31
2604205,Catende,-8.675535266672865,-35.730936275600165,False,26,81
3511201,Catiguá,-21.06284358036336,-49.052801140877605,False,35,17
2504207,Catingueira,-7.1384900602305095,-37.59077296232466,False,25,83
2907400,Catolândia,-12.273439720768835,-44.69706752195112,False,29,77
2504306,Catolé do Rocha,-6.321104296156711,-37.704469329600066,False,25,83
2907509,Catu,-12.330569443846144,-38.41290042028115,False,29,71
4305009,Catuípe,-28.168483162139793,-54.03436776292093,False,43,55
3115458,Catuji,-17.371747160217733,-41.49847714153923,False,31,33
2303659,Catunda,-4.6295803470746755,-40.175015706715065,False,23,88
5205208,Caturaí,-16.454764662124173,-49.58360493812516,False,52,62
2907558,Caturama,-13.2334624112545,-42.3194172660685,False,29,77
2504355,Caturité,-7.415963691776728,-36.057702313387956,False,25,83
3115474,Catuti,-15.335646239147367,-43.09741108028871,False,31,38
2303709,Caucaia,-3.783598806776933,-38.80969102558386,False,23,85
5205307,Cavalcante,-13.635260186913191,-47.69662487646764,False,52,62
3115508,Caxambu,-21.9776318462745,-44.94728567685366,False,31,35
4204103,Caxambu do Sul,-27.146711206817344,-52.92021077030509,False,42,49
2103000,Caxias,-4.86645430265643,-43.29916267521914,False,21,99
4305108,Caxias do Sul,-29.102193145268718,-51.023673858220434,False,43,54
2202653,Caxingó,-3.3918999505573875,-41.85058192192894,False,22,86
2402600,Ceará-Mirim,-5.595470340767517,-35.39522141785924,False,24,84
2103109,Cedral,-1.9774645358324168,-44.59376028320321,False,21,98
3511300,Cedral,-20.913887288733637,-49.26390574644819,False,35,17
2303808,Cedro,-6.569747443501596,-39.09319234150403,False,23,88
2604304,Cedro,-7.743823254193245,-39.20373798426267,False,26,87
2801603,Cedro de São João,-10.26648630530944,-36.899176586447176,False,28,79
3115607,Cedro do Abaeté,-19.120895210534847,-45.698626222108864,False,31,37
4204152,Celso Ramos,-27.651968889155878,-51.308241483805936,False,42,49
4305116,Centenário,-27.775283906941745,-52.00288147844176,False,43,54
1704105,Centenário,-9.07379499720146,-47.4447822249705,False,17,63
4105102,Centenário do Sul,-22.80535669064798,-51.56059115569874,False,41,43
2907608,Central,-11.151291461603208,-42.11242668423633,False,29,74
3115706,Central de Minas,-18.768434192318647,-41.29486248169369,False,31,33
2103125,Central do Maranhão,-2.254876661194387,-44.85793307624982,False,21,98
3115805,Centralina,-18.632544512015237,-49.162514881088875,False,31,34
2103158,Centro do Guilherme,-2.432531318051166,-46.12044345144311,False,21,98
2103174,Centro Novo do Maranhão,-3.070709899919373,-46.533633761389865,False,21,98
1100056,Cerejeiras,-13.203561520699393,-61.26095018379898,False,11,69
5205406,Ceres,-15.276343673556031,-49.636660527645574,False,52,62
3511409,Cerqueira César,-23.059341991088395,-49.14382030824467,False,35,14
3511508,Cerquilho,-23.187123398035684,-47.75713328560421,False,35,15
4305124,Cerrito,-31.72971083139028,-52.79599042886773,False,43,53
4105201,Cerro Azul,-24.87536922478606,-49.279716149447445,False,41,41
4305132,Cerro Branco,-29.627058960213095,-52.995476621811044,False,43,51
2402709,Cerro Corá,-5.98935638821156,-36.32715319222324,False,24,84
4305157,Cerro Grande,-27.628549653620126,-53.16308801398291,False,43,55
4305173,Cerro Grande do Sul,-30.58392899138316,-51.76023558250192,False,43,51
4305207,Cerro Largo,-28.131040045819333,-54.739423881108614,False,43,55
4204178,Cerro Negro,-27.776354677691405,-50.93193513840242,False,42,49
3511607,Cesário Lange,-23.216511003611814,-47.90389784717539,False,35,15
4105300,Céu Azul,-25.246411044308687,-53.76184671439654,False,41,45
5205455,Cezarina,-17.085948417885994,-49.75625923426521,False,52,64
2604403,Chã de Alegria,-7.99939976215017,-35.222206641297696,False,26,81
2604502,Chã Grande,-8.229565284732786,-35.47399612920986,False,26,81
2701902,Chã Preta,-9.24240344012031,-36.281784767957085,False,27,82
3115904,Chácara,-21.686638769876243,-43.21321473750034,False,31,32
3116001,Chalé,-20.030977817521748,-41.65978351826926,False,31,33
4305306,Chapada,-28.096908240040424,-53.11508150230051,False,43,54
1705102,Chapada da Natividade,-11.541069944479535,-47.846441596862036,False,17,63
1704600,Chapada de Areia,-10.165712805430314,-49.19567143536852,False,17,63
3116100,Chapada do Norte,-17.14736476468561,-42.412156280561916,False,31,33
5103007,Chapada dos Guimarães,-15.121009014727615,-55.55214645030912,False,51,65
3116159,Chapada Gaúcha,-15.469379678182476,-45.45857051891424,False,31,38
5205471,Chapadão do Céu,-18.465214837240396,-52.633078064653844,False,52,64
4204194,Chapadão do Lageado,-27.58272661263113,-49.556383499873384,False,42,47
5002951,Chapadão do Sul,-18.994523114021238,-52.69802122366852,False,50,67
2103208,Chapadinha,-3.848576312787269,-43.45382623810101,False,21,98
4204202,Chapecó,-27.125150361880827,-52.650414072623555,False,42,49
3511706,Charqueada,-22.53017581113978,-47.746196641051746,False,35,19
4305355,Charqueadas,-29.99020188077063,-51.55620955960805,False,43,51
4305371,Charrua,-27.94501882624413,-52.00044270771628,False,43,54
2303907,Chaval,-3.0926473817213447,-41.23256173283183,False,23,88
3557204,Chavantes,-23.046333818939335,-49.726539119371644,False,35,14
1502509,Chaves,-0.032400552480308584,-49.83789183670419,False,15,91
3116209,Chiador,-22.002991738350076,-43.029657109836066,False,31,32
4305405,Chiapetta,-27.986493255954674,-53.90984920897406,False,43,55
4105409,Chopinzinho,-25.811981321458063,-52.45098043787381,False,41,46
2303931,Choró,-4.7723156711278385,-39.19108453162074,False,23,88
2303956,Chorozinho,-4.302326434444331,-38.46833823455376,False,23,85
2907707,Chorrochó,-9.271707125577995,-39.189110239418746,False,29,75
4305439,Chuí,-33.652536766060145,-53.41273508284063,False,43,53
1100924,Chupinguaia,-12.53723825099325,-60.89913776254411,False,11,69
4305447,Chuvisca,-30.78198288924386,-52.00476580804377,False,43,51
4105508,Cianorte,-23.72745877262457,-52.62698961403923,False,41,44
2907806,Cícero Dantas,-10.506387795506473,-38.45473163490617,False,29,75
4105607,Cidade Gaúcha,-23.38283157672694,-52.958485964478754,False,41,44
5205497,Cidade Ocidental,-16.12398596622271,-47.81907426491006,False,52,61
2103257,Cidelândia,-5.057160951405015,-47.829783388174384,False,21,99
4305454,Cidreira,-30.121018967093576,-50.272191637355434,False,43,51
2907905,Cipó,-11.107771339338242,-38.52309311748893,False,29,75
3116308,Cipotânea,-20.923988344483867,-43.35816488386572,False,31,32
4305504,Ciríaco,-28.346205099226253,-51.91764257419927,False,43,54
3116407,Claraval,-20.36937886961109,-47.23949729490128,False,31,34
3116506,Claro dos Poções,-17.06871302815549,-44.22812729460214,False,31,38
5103056,Cláudia,-11.448154664554487,-55.04769829662583,False,51,66
3116605,Cláudio,-20.397398018537018,-44.77594198567068,False,31,37
3511904,Clementina,-21.570329178961995,-50.46006991007857,False,35,18
4105706,Clevelândia,-26.344640902073394,-52.357871763579375,False,41,46
2908002,Coaraci,-14.631826928937196,-39.59319096769907,False,29,73
1301209,Coari,-4.4363512087497075,-64.12531062731674,False,13,97
2202703,Cocal,-3.4536763466371543,-41.542301934668565,False,22,86
2202711,Cocal de Telha,-4.616824192496246,-41.95763986243632,False,22,86
4204251,Cocal do Sul,-28.59869687910049,-49.33393038133752,False,42,48
2202729,Cocal dos Alves,-3.630339808939216,-41.42083937781371,False,22,86
5103106,Cocalinho,-13.869823003639222,-51.1484462321138,False,51,66
5205513,Cocalzinho de Goiás,-15.655766005786687,-48.60236041246036,False,52,62
2908101,Cocos,-14.497038780568362,-45.22011187981437,False,29,77
1301308,Codajás,-3.2889847188902297,-62.97329426163535,False,13,97
2103307,Codó,-4.607251731944737,-43.886009047695644,False,21,99
2103406,Coelho Neto,-4.24807029826305,-43.11188500374843,False,21,98
3116704,Coimbra,-20.843830470998956,-42.791492835171724,False,31,32
2702009,Coité do Nóia,-9.629615121173464,-36.58217772918801,False,27,82
2202737,Coivaras,-5.099885758003355,-42.284264193391294,False,22,86
1502608,Colares,-0.9358459088472953,-48.2737190902399,False,15,91
3201506,Colatina,-19.488202858881035,-40.65679154845087,False,32,27
5103205,Colíder,-10.630984874582268,-55.468584079299326,False,51,66
3512001,Colina,-20.74616860859011,-48.5888647427917,False,35,17
4305587,Colinas,-29.391763724486996,-51.86557683998769,False,43,51
2103505,Colinas,-6.055723932886613,-44.181441781517634,False,21,99
5205521,Colinas do Sul,-13.984912829478443,-48.07535957888058,False,52,62
1705508,Colinas do Tocantins,-8.076435620247722,-48.53011530518067,False,17,63
1716703,Colméia,-8.83742659033576,-48.74864061514883,False,17,63
5103254,Colniza,-9.292440659291552,-60.304193809602594,False,51,66
3512100,Colômbia,-20.26687370997197,-48.72174395453264,False,35,17
4105805,Colombo,-25.306335946853864,-49.18802662421042,False,41,41
2202752,Colônia do Gurguéia,-8.18133709115548,-43.69623286980379,False,22,89
2202778,Colônia do Piauí,-7.293854191507041,-42.18700788393853,False,22,89
2702108,Colônia Leopoldina,-8.938901799810768,-35.761497321755876,False,27,82
4305603,Colorado,-28.472443911898743,-52.99135309636534,False,43,54
4105904,Colorado,-22.836112245538484,-51.97177962675998,False,41,44
1100064,Colorado do Oeste,-13.159153383056545,-60.55024478560049,False,11,69
3116803,Coluna,-18.248001659367134,-42.83939509976214,False,31,33
1705557,Combinado,-12.846283003515516,-46.50374865774097,False,17,63
3116902,Comendador Gomes,-19.672183422040906,-49.07093063176786,False,31,34
3300951,Comendador Levy Gasparian,-22.043771017959266,-43.25573982873681,False,33,24
3117009,Comercinho,-16.285007886025706,-41.76749623975371,False,31,33
5103304,Comodoro,-13.193665222886084,-59.75136486458626,False,51,65
2504405,Conceição,-7.503763288942742,-38.52832056754362,False,25,83
3117108,Conceição da Aparecida,-21.096958335364125,-46.22593565688451,False,31,35
3201605,Conceição da Barra,-18.445136913222935,-39.83336769728826,False,32,27
3115201,Conceição da Barra de Minas,-21.145102676834483,-44.49307408603311,False,31,32
2908200,Conceição da Feira,-12.504862700458318,-38.999760458967295,False,29,75
3117306,Conceição das Alagoas,-19.9597580413272,-48.36147834594448,False,31,34
3117207,Conceição das Pedras,-22.146986134970316,-45.425181805588785,False,31,35
3117405,Conceição de Ipanema,-19.913520429477888,-41.686727268652426,False,31,33
3301405,Conceição de Macabu,-22.136612647928693,-41.846579811080545,False,33,22
2908309,Conceição do Almeida,-12.859901692364101,-39.245601267312566,False,29,75
1502707,Conceição do Araguaia,-8.182491116170004,-49.5127083951812,False,15,94
2202802,Conceição do Canindé,-7.914562122825706,-41.58089243139768,False,22,89
3201704,Conceição do Castelo,-20.370851620142858,-41.26590753259012,False,32,28
2908408,Conceição do Coité,-11.524123140992454,-39.24981985125028,False,29,75
2908507,Conceição do Jacuípe,-12.337192503961084,-38.74218570983279,False,29,75
2103554,Conceição do Lago-Açu,-3.7968573390457276,-44.83865388886617,False,21,98
3117504,Conceição do Mato Dentro,-18.936963288233905,-43.50788957843638,False,31,31
3117603,Conceição do Pará,-19.78566483074512,-44.87173354983062,False,31,37
3117702,Conceição do Rio Verde,-21.897323092102596,-45.09082316081317,False,31,35
1705607,Conceição do Tocantins,-12.171034220133896,-47.30367348696365,False,17,63
3117801,Conceição dos Ouros,-22.44773567462896,-45.775070960962445,False,31,35
3512209,Conchal,-22.36931507740608,-47.141134443099986,False,35,19
3512308,Conchas,-22.965633023587987,-48.04710390482951,False,35,14
4204301,Concórdia,-27.239126529212662,-52.00738183465327,False,42,49
1502756,Concórdia do Pará,-1.8817123485036147,-47.97465628564386,False,15,91
2504504,Condado,-6.9049538635692835,-37.6154671847333,False,25,83
2604601,Condado,-7.596312955315024,-35.09867745237025,False,26,81
2504603,Conde,-7.282029928050766,-34.86065351179538,False,25,83
2908606,Conde,-11.827736479572788,-37.6775952618595,False,29,75
2908705,Condeúba,-14.921493872742529,-42.0510828398981,False,29,77
4305702,Condor,-28.165502815017593,-53.49390796042061,False,43,55
3117836,Cônego Marinho,-14.98468851190782,-44.5963960275485,False,31,38
3117876,Confins,-19.64222637270361,-43.974974109229805,False,31,31
5103353,Confresa,-10.40416662785919,-51.69857253023215,False,51,66
2504702,Congo,-7.795037504682364,-36.646531816220175,False,25,83
3117900,Congonhal,-22.143381194344858,-46.04137599029717,False,31,35
3118007,Congonhas,-20.516106958485253,-43.86162576624542,False,31,31
3118106,Congonhas do Norte,-18.863356840315777,-43.68716723489163,False,31,31
4106001,Congonhinhas,-23.605706270393707,-50.50387165317495,False,41,43
3118205,Conquista,-19.883577584179914,-47.6238896997434,False,31,34
5103361,Conquista D'Oeste,-14.63468202987956,-59.33223622692001,False,51,65
3118304,Conselheiro Lafaiete,-20.66600844374154,-43.788656797289335,False,31,31
4106100,Conselheiro Mairinck,-23.597353650024953,-50.12972569094322,False,41,43
3118403,Conselheiro Pena,-19.170198129421085,-41.456717959587024,False,31,33
3118502,Consolação,-22.536459286416118,-45.91554506999178,False,31,35
4305801,Constantina,-27.689265201741616,-52.99030752476381,False,43,54
3118601,Contagem,-19.887174168862845,-44.083992624387186,False,31,31
4106209,Contenda,-25.71912353248246,-49.52612149792463,False,41,41
2908804,Contendas do Sincorá,-13.838346048251786,-41.09365166980344,False,29,77
3118700,Coqueiral,-21.16904403506746,-45.415337640569845,False,31,35
4305835,Coqueiro Baixo,-29.168133414929276,-52.12641768701063,False,43,51
2702207,Coqueiro Seco,-9.642261790800598,-35.80873983451127,False,27,82
4305850,Coqueiros do Sul,-28.13081402915167,-52.75918716308941,False,43,54
3118809,Coração de Jesus,-16.613170657835184,-44.378750194785475,False,31,38
2908903,Coração de Maria,-12.210649056899541,-38.783108175574114,False,29,75
4106308,Corbélia,-24.742511962091818,-53.237044586098804,False,41,45
3301504,Cordeiro,-22.058803651780995,-42.34222062041599,False,33,22
3512407,Cordeirópolis,-22.479552673858763,-47.41467348615369,False,35,19
2909000,Cordeiros,-15.040970545926635,-41.90824455946978,False,29,77
4204350,Cordilheira Alta,-26.975421631739614,-52.64158113367721,False,42,49
3118908,Cordisburgo,-19.092099098491026,-44.205018169138754,False,31,31
3119005,Cordislândia,-21.7819368917807,-45.66211206464134,False,31,35
2304004,Coreaú,-3.6415200632532363,-40.7263633817239,False,23,88
2504801,Coremas,-7.050476338225381,-37.9753073661101,False,25,83
5003108,Corguinho,-19.807573805780898,-55.05740476702632,False,50,67
2909109,Coribe,-13.814514186555504,-44.37639004257276,False,29,77
3119104,Corinto,-18.33549067717147,-44.61752373036218,False,31,38
4106407,Cornélio Procópio,-23.225788359794684,-50.623529157981224,False,41,43
3119203,Coroaci,-18.6169312778589,-42.26861134573896,False,31,33
3512506,Coroados,-21.375606232931442,-50.30340340829922,False,35,18
2103604,Coroatá,-4.1022011209507685,-44.14530068335662,False,21,99
3119302,Coromandel,-18.41308416190897,-47.13682198475527,False,31,34
4305871,Coronel Barros,-28.403879080450405,-54.06033686554776,False,43,55
4305900,Coronel Bicaco,-27.797703428515952,-53.646351007976904,False,43,55
4106456,Coronel Domingos Soares,-26.18244199968716,-51.930199737673206,False,41,46
2402808,Coronel Ezequiel,-6.357196196429636,-36.19590464226499,False,24,84
3119401,Coronel Fabriciano,-19.458587482601395,-42.6899250447459,False,31,31
4204400,Coronel Freitas,-26.88286303398876,-52.7254867865148,False,42,49
2402907,Coronel João Pessoa,-6.2554731542937185,-38.4228128808624,False,24,84
2909208,Coronel João Sá,-10.280184436822386,-37.93631178768974,False,29,75
2202851,Coronel José Dias,-8.897320962310097,-42.33423503794794,False,22,89
3512605,Coronel Macedo,-23.630119994666018,-49.306862454950924,False,35,14
4204459,Coronel Martins,-26.534645914594197,-52.67187452656838,False,42,49
3119500,Coronel Murta,-16.591284370787328,-42.17630352857662,False,31,33
3119609,Coronel Pacheco,-21.604668210982304,-43.29309552612639,False,31,32
